{"places":[{"geometry":{"location":{"lat":50.010791,"lng":36.24269099999999},"viewport":{"northeast":{"lat":50.01188203029151,"lng":36.2438715802915},"southwest":{"lat":50.00918406970851,"lng":36.2411736197085}}},"icon":"https://maps.gstatic.com/mapfiles/place_api/icons/museum-71.png","id":"130ca18566d6beeaecd52b662d7aa820169fd74d","name":"Research and Educational Museum Sexual Cultures of the World","opening_hours":{"open_now":false,"weekday_text":[]},"photos":[{"height":2448,"html_attributions":["<a href=\"https://maps.google.com/maps/contrib/109663122148339864712/photos\">Konstantin</a>"],"photo_reference":"CmRaAAAAxeHTq1Oj5PXaZMXsBEB1DPz4wMldsxvo6WYD_8EzWzcLWV0ir8Sg8e2NwdAEOQbDeFPjq2dKU8wzvSEJc7O4nnLNvnqvm_qujlvpt8QAvxDrX_xlT-VdtbhmNheTOOxcEhAJslZqQg0FVNTPNxqHHkIgGhSZ5o75sn2Ivb2ii_xM6xUn_z2jQg","width":2448}],"place_id":"ChIJF_V8oNmgJ0ERtygyMXKFQr8","rating":4.6,"reference":"CmRSAAAATooJgenC9zVDrs8ddxgNexRCWaesEP8yN3lhMQQm1e77CJWpnUsnn86RPY2iC4-mznnpe4jH76iiflZpP8vBqMDn10axj2ZOjlx4bgPbPAIr0dzBqZ9klBWPsQriKEHmEhBLj5ZP94ycccO9qTZY6B26GhQos5tGj5k4WmUE1jQ6Ohl0voIU5A","scope":"GOOGLE","types":["museum","point_of_interest","establishment"],"vicinity":"Mayakovs'koho Street, 5, Kharkiv"},{"geometry":{"location":{"lat":49.9926104,"lng":36.2309558},"viewport":{"northeast":{"lat":49.9939828302915,"lng":36.2318412302915},"southwest":{"lat":49.9912848697085,"lng":36.2291432697085}}},"icon":"https://maps.gstatic.com/mapfiles/place_api/icons/museum-71.png","id":"12e1561ce384695f686319f3f8d191c4482d8abc","name":"Харківський історичний музей імені М.Ф.Сумцова","opening_hours":{"open_now":false,"weekday_text":[]},"photos":[{"height":1365,"html_attributions":["<a href=\"https://maps.google.com/maps/contrib/117181241864123477380/photos\">Харківський історичний музей імені М.Ф.Сумцова</a>"],"photo_reference":"CmRaAAAAk2-Yw9RKg0FjdrWRl2T4T9ICDB4C907hS1-WZ6NERYcDH8mi05Mqwl8IB7JbQClbn7FXhGjx0H9s2cEoqMv3rMQ8ABhg9WaUjt43O9MH4rralW0dZ5yn4WaCp06nll4SEhBQxpTGJRK9PipM0A5u-CiaGhQ5FZTdv759GcOrvMc-tVLas9_sDA","width":2048}],"place_id":"ChIJT_RaiPCgJ0ER7SWkxRVV-H4","rating":4.4,"reference":"CmRRAAAAeEoCzmP_ZTtIzCE8awM2z8qExhCpqVMS5IvkvhUl5ALQZtsaprt6Lm7ufdgq4_tUPp7XVq3T7XFBQ8pvm4tdPgYDZ9kTSlu-mm15XOBnvVZ524t28Ga3Y50ORVGEu3uOEhB4a1Ffjz7hZnZmbMv4B9roGhT0C9Or5Ri1fCjt8KvBai2AOEmAAg","scope":"GOOGLE","types":["museum","point_of_interest","establishment"],"vicinity":"Universytets'ka Street, 5, Kharkiv"},{"geometry":{"location":{"lat":50.007217,"lng":36.240718},"viewport":{"northeast":{"lat":50.0087838802915,"lng":36.2416166302915},"southwest":{"lat":50.0060859197085,"lng":36.2389186697085}}},"icon":"https://maps.gstatic.com/mapfiles/place_api/icons/museum-71.png","id":"0f6aa8a236b1fd3ee8099f1b149d552f24ad1b59","name":"Memorial Museum of the Family Grizodubova","opening_hours":{"open_now":false,"weekday_text":[]},"photos":[{"height":1920,"html_attributions":["<a href=\"https://maps.google.com/maps/contrib/107475045487878445489/photos\">Роман Бескровный</a>"],"photo_reference":"CmRaAAAAjDmOm2WSk10XP1skyd1hWwy1uq4zr0DAl-TZDduVyAeh8FIadrlspd8lfEaIX0YDzKYRs8wDYwkqRNrtMv36bQCRWH8KNHy9uawUhF84XuD9xe9-17D9He7KNSV3ffLCEhCVRwCm8aFxTXhyLUTHL2UWGhTuvDO55ZWyqxK73XPBFavKkNFCOg","width":1280}],"place_id":"ChIJE-6lH9ygJ0ERf-PpALVHQI8","rating":4.5,"reference":"CmRSAAAAitWGNOoZ3bjN9qNWgKpc7WSdyVuZQpKiV90gO5BWsX-HCnLvc2lbGe-nw7QuXF-OQywoWUiLfi5rRKpHOVBcZiZEuvRwa0QkaveSWInFg5K6ihOFvo8iMHHvyEzLEz77EhC1i6KigSsyijUfQxwT-Z19GhRhHUNYDmb2NPpMIQw90cEfL5N-Eg","scope":"GOOGLE","types":["museum","point_of_interest","establishment"],"vicinity":"Myronosytska Street, 54Б, Kharkiv"},{"geometry":{"location":{"lat":49.99915499999999,"lng":36.2385839},"viewport":{"northeast":{"lat":50.00037538029149,"lng":36.2399184802915},"southwest":{"lat":49.99767741970849,"lng":36.2372205197085}}},"icon":"https://maps.gstatic.com/mapfiles/place_api/icons/museum-71.png","id":"4ac7a553cfd71d320478de0b13e7b35226cf29e4","name":"Kharkiv Art Museum","opening_hours":{"open_now":false,"weekday_text":[]},"photos":[{"height":4008,"html_attributions":["<a href=\"https://maps.google.com/maps/contrib/113259653106432297186/photos\">Igor Nayda</a>"],"photo_reference":"CmRaAAAAMj_ZyPxP2C2EEtYTnv3BfOZ8S6ljSvnR5Vocq0Vs_i0gu-jO76Vs2zxdSs6QXjLMX5W8e1mMKXf7LWc8a-2o9ElZhSM_pnvB3S3Hg0ILjq1v5oTXfYJQGuwO3C9KMQckEhC164GWBpfp1jN9ItLtill8GhRKYqRv9Viwxq7OZDgK9kUg_i9SZA","width":2654}],"place_id":"ChIJq9XxGOagJ0EReYT1zxrOvqo","rating":4.3,"reference":"CmRSAAAAEQ72rmyzXYaXmeoYBhW6W6GLcLAPeemYsiK7wp1GBATTUMcq4oVgO4evCsF0TbwYXfVSzWlsq5F8W1NM55HQ0jizio4iyd6NLBA2zp2qUqs4r1KiARpthxdrS8aQL1m0EhA-nZca1HI0zEnBGnGxPyuuGhTJQquanpKMX5PnpTzlYE2rqWC89Q","scope":"GOOGLE","types":["museum","point_of_interest","establishment"],"vicinity":"Zhon Myronosyts Street, 11, Kharkiv"},{"geometry":{"location":{"lat":50.0058415,"lng":36.237926},"viewport":{"northeast":{"lat":50.00719048029149,"lng":36.2392749802915},"southwest":{"lat":50.00449251970849,"lng":36.23657701970851}}},"icon":"https://maps.gstatic.com/mapfiles/place_api/icons/museum-71.png","id":"e55211d8c246a71685ae8dfc3349192d57e05de5","name":"Kharkov Private Museum of the City Estate","place_id":"ChIJHeCxcN6gJ0ER6fCoIqBX0tk","rating":4,"reference":"CmRSAAAAlyUrRuaY6477e7RJ2Itclh3xqESP_Ewj05qjdgA27Sfm8uj4rT_CDq_zBvwZK1-MRQ5iwQaEQcVzAe-Mk72TnmWqvh3PIm0FureNeZzjuRfUfsqUtbX61I7EYiXUIuK9EhA5zkGDSD42RmKC4mOfQrC5GhQmm2NesG_ZhjxjaJ7DRKVpib-XWA","scope":"GOOGLE","types":["museum","point_of_interest","establishment"],"vicinity":"кв. 204, Мироносицька вул., 43, Kharkiv"},{"geometry":{"location":{"lat":50.0081697,"lng":36.23604830000001},"viewport":{"northeast":{"lat":50.00962353029149,"lng":36.23718118029151},"southwest":{"lat":50.00692556970849,"lng":36.23448321970851}}},"icon":"https://maps.gstatic.com/mapfiles/place_api/icons/museum-71.png","id":"921a4d450047cf9938a71de470ff129fa7735ffe","name":"Museum of Nature KNU Them. V. N. Karazin","opening_hours":{"open_now":false,"weekday_text":[]},"photos":[{"height":1080,"html_attributions":["<a href=\"https://maps.google.com/maps/contrib/100294930366853213504/photos\">Vitalij Isajenko</a>"],"photo_reference":"CmRaAAAAw4CZtUD6Md6qKCl6duPmbxkn4RyUbJwo4-o9BsIZyezQk7VZ6bRgXZd261XUffgu_S0Tfi7677uTOYlLRdgTeaBiH6G7BeQEGGeMQa5M4DR9wrZBNEFl-P0qhEFc7akuEhCV7ZVCESTbHYROF87rAYMBGhQfHDPApNiKwQgMrqZiONjlRqhRHQ","width":1620}],"place_id":"ChIJV-hsHd-gJ0ERvYuoRGrGbhw","rating":4.3,"reference":"CmRRAAAAxy4y71tBIZhthOr32B9XlEzN5RUtYqRcY5J-RWG7cLkJccC2MNK0cXgDFs3HYSJ4pETcvKFuDYQQJ4dN04HIK6dvjdlbt4ofMlZOqnuDsPh-ut9LnwBA-zXyeQdiYytREhC0hp4_gpoAtJmzAnmNBDZXGhRzUS9vyEg6W59Ibt-ChltRPcjlRg","scope":"GOOGLE","types":["museum","point_of_interest","establishment"],"vicinity":"Trinklera St, 8, Kharkiv"},{"geometry":{"location":{"lat":49.9919539,"lng":36.2044928},"viewport":{"northeast":{"lat":49.9933982802915,"lng":36.2083619},"southwest":{"lat":49.9907003197085,"lng":36.20320309999999}}},"icon":"https://maps.gstatic.com/mapfiles/place_api/icons/museum-71.png","id":"13a61fa8269491635816e7085291b82ad3d4c685","name":"History Museum of the Southern Railway","opening_hours":{"open_now":false,"weekday_text":[]},"photos":[{"height":1152,"html_attributions":["<a href=\"https://maps.google.com/maps/contrib/116234547959560747593/photos\">Андрій Дзямко</a>"],"photo_reference":"CmRaAAAAcN1JSjVeWrXXLu4_ncg_jMFAjK1dTsvXXr5tjtGfhzzHjXtfKe8sUoQd6p6tJec6O6fTuta0FEmBQIDvreLsjvoJOU3SdZyYAw9I-LNWZnvCv0lsr5DzJSCDrcIz6qZCEhDa30H32qlIFwAP-aOU9P_QGhT2puQ2RfvZkEERBwNR9Ja_Cj_DYw","width":2048}],"place_id":"ChIJx4sjHgShJ0ER_bQLEyJaPFs","rating":4.7,"reference":"CmRRAAAAzr2Sis2TKGaARgNJxMPqcG5JAfIkgZrWHbOoJYg3Nte7anRvqAhcDxECfcls0V8VvQLgl1t7rZ6E-QQkCQIds1M_RVvaFNdKzhgRlgST9w8Y2RxPPlJpxMl5rYkYj1G2EhCyCT8t59zbpQj6MgfZHxcFGhRjiR08anlM6DwXWOHh-EiEbMdqdA","scope":"GOOGLE","types":["museum","point_of_interest","establishment"],"vicinity":"Yevhena Kotliara Street, 15в, Kharkiv"},{"geometry":{"location":{"lat":50.0047382,"lng":36.2264639},"viewport":{"northeast":{"lat":50.0063506802915,"lng":36.22848844999999},"southwest":{"lat":50.00365271970851,"lng":36.22578905}}},"icon":"https://maps.gstatic.com/mapfiles/place_api/icons/generic_business-71.png","id":"06e79c88d48374d447aa0716385554af7f6054d9","name":"YermilovCentre","photos":[{"height":400,"html_attributions":["<a href=\"https://maps.google.com/maps/contrib/117278559334343304861/photos\">Евгений Хлебников</a>"],"photo_reference":"CmRaAAAAL9jZZb8zxlHi-BkQZspPKkDDFpUycvXHnxcnzcNOwU69aI6LqGAbVFaYUb4T9qXlxRyH07fygPrTAIAFobaQ3Uxqh2c79AfXVl5TCrGaBSN6nAQUiT6w6y2ibarUGA_oEhDougZVVxEJQIiPFTcn4YF2GhR6AQqRRRoMcCZk5wmIdPUqf2vYaA","width":600}],"place_id":"ChIJ-a9xnOCgJ0ERrm_4GaNusP8","rating":4.6,"reference":"CmRSAAAAgmxvcdlqhG5ksQsyvsrVhU1eF8sdTuIV0E2xlLHu743mhqwjgaN8E8KA4LbjZncpS2AM2o68egx5F3Bdg3P5-61Z9Sb2o_zOtdWZGB2Uv9ApIL-13tPni5XkQwWyaGg0EhBZDTsN_4K9kU0jFoFajWvMGhQL_AZJmlK_efTWURP1TbrVsm57eg","scope":"GOOGLE","types":["art_gallery","museum","point_of_interest","establishment"],"vicinity":"Svobody Square, 4, Kharkiv"},{"geometry":{"location":{"lat":49.989807,"lng":36.27043500000001},"viewport":{"northeast":{"lat":49.99105558029149,"lng":36.2716137802915},"southwest":{"lat":49.98835761970849,"lng":36.2689158197085}}},"icon":"https://maps.gstatic.com/mapfiles/place_api/icons/museum-71.png","id":"437c2fd54c7267cafc586e1306d82c1ec79cdeb0","name":"City Museum K. I. Shulzhenko","opening_hours":{"open_now":false,"weekday_text":[]},"photos":[{"height":3120,"html_attributions":["<a href=\"https://maps.google.com/maps/contrib/117480810138558734292/photos\">Костя Корчевой</a>"],"photo_reference":"CmRaAAAAHe-nVMdtE3x8lqH6Im9uUg7iuagm78zMzmbQIEs7u66BY2Vc141DFoQBn2sPkLdWFjQXeJZvfUP0665xsnSA6hM8-i6Gop6wRXb2V8BbMQm8uRfpoVjlG9ZRMDELuB57EhD7_3mRXvih0sK3hwE3MN2PGhSj71jXQlZbBvomT9m9sCTvd2bdSQ","width":4160}],"place_id":"ChIJNXSMOpigJ0ERJoduq0d9ri0","rating":4.5,"reference":"CmRRAAAAD46mbsP6i5q9MdGr1WFQ6ZbbLfkUwOPw1LxizeRj2UMe_E5GTeigP3Ie1uJq9hzDnxQcTnukNJP4KIW1ickAJtrC6CffYWLk-kLSkhRZDR2KIWOUTnEVI9GO-ZXUIAL8EhCJXu5ddPwMANGTqfIsztGiGhSlSMS7rFIOGNulhQrA9H50ZIMW5w","scope":"GOOGLE","types":["museum","point_of_interest","establishment"],"vicinity":"Baikal's'kyi Lane, 1, Kharkiv"},{"geometry":{"location":{"lat":50.0045835,"lng":36.2453315},"viewport":{"northeast":{"lat":50.00593248029149,"lng":36.2466804802915},"southwest":{"lat":50.00323451970849,"lng":36.2439825197085}}},"icon":"https://maps.gstatic.com/mapfiles/place_api/icons/museum-71.png","id":"c1f89bbdca60dd9338efef6ef7b39f4114b1636f","name":"Kharkov Holocaust Museum","opening_hours":{"open_now":false,"weekday_text":[]},"photos":[{"height":933,"html_attributions":["<a href=\"https://maps.google.com/maps/contrib/112488397694497349989/photos\">Vladimir Tarapat</a>"],"photo_reference":"CmRaAAAAdNvA1VO2cYmu2SI3_gxet38DVdJl0WbHP3KVIqxDISylufGKOVg3MWn7P4RYqzB9xzBy0bliWNT8fTOMgmM49uG9MohOycRyiY2JqmfMPC3PGfVFBVBubUJifOM3YYUAEhD_bzbGNTr8tcdtHx5Av1BrGhQBdw21fk3AxhO-65aRsbE-Y1EN1w","width":700}],"place_id":"ChIJnxCT2tygJ0ERGqq9SVrCEoI","rating":3,"reference":"CmRSAAAAKXLgs0AtwnxcMW5CK6NraOLwBqZ9-xSXrYGZNX6CtioLMi4oL9N_jn5hJwgVWgtuc9pTlughNUoKPXiMJ8zz8S3i1T6iwJoScISeGTu-r_PjsU3RPQBaFpQyTArSSsqrEhBfi57rNfXpia-cuJ62ZX54GhSEPfgbZ_FVJoCuCSmCa_Cw7YTc9g","scope":"GOOGLE","types":["museum","point_of_interest","establishment"],"vicinity":"вулиця Петровського, 28, Kharkiv"},{"geometry":{"location":{"lat":50.03723249999999,"lng":36.2895616},"viewport":{"northeast":{"lat":50.03869188029149,"lng":36.2909500302915},"southwest":{"lat":50.0359939197085,"lng":36.2882520697085}}},"icon":"https://maps.gstatic.com/mapfiles/place_api/icons/school-71.png","id":"fbfe340ba6adb008bbd4aa668c77dc3c64ce2eba","name":"Комунальний заклад «Школа мистецтв Харківської міської ради»","opening_hours":{"open_now":false,"weekday_text":[]},"photos":[{"height":2592,"html_attributions":["<a href=\"https://maps.google.com/maps/contrib/111304018340864050282/photos\">Комунальний заклад «Школа мистецтв Харківської міської ради»</a>"],"photo_reference":"CmRaAAAAxGQ1ndBcgEeuX85abQSjx8cZRyvSGSrtHTuLh8EQ5t3h6_7Gdi06LW5qyZ8Co6SzmiP8NPj_o2wp_7bLwGBUIKJJk49hgK03_zjpQS4jO-HoVGWsLK3Vl5_6qiZftb-JEhCEoT-cjbS50s61yD3fp64HGhR59NL3mVp95SoGOXYq14UGE5aj8w","width":3888}],"place_id":"ChIJs1mZYdmgJ0ERasFRhd7Guss","reference":"CmRSAAAAmm6770RV6VHb8YFRZWiLwgBo7BqIB_aLGrQfw3xNaOkQPWGauuV_hTpqe3EM9n3ZgllDoZlRM1p_A6kq0eqBaGxKusmvhMomtvDWnc37DfLQ4ml1D-8dYqyoJ3ponkWmEhDBDtNn445FvgEhdKvEj5m8GhRDe8bLnzztC9rTLEAECIx4j3goIQ","scope":"GOOGLE","types":["school","museum","point_of_interest","establishment"],"vicinity":"Staroshyshkivs'ka Street, 8, Kharkiv"},{"geometry":{"location":{"lat":49.9961808,"lng":36.2365716},"viewport":{"northeast":{"lat":49.9975522802915,"lng":36.2377921802915},"southwest":{"lat":49.9948543197085,"lng":36.2350942197085}}},"icon":"https://maps.gstatic.com/mapfiles/place_api/icons/museum-71.png","id":"33fed36a21b98a401e36a849cccbdf062957b21f","name":"Aza Nizi Maza","photos":[{"height":4608,"html_attributions":["<a href=\"https://maps.google.com/maps/contrib/115327976683396885655/photos\">ABashkatOFF</a>"],"photo_reference":"CmRaAAAAUNq5QpKuvyhtYFE9mKJue5N6InBf62njsKGCshHfR59X1e9miJ72vrYNgHOcLhUmF2JmMej_mt2eqYHd7qBe_003vEufrZdbdBwq6OjA_qvtfvLUDnIVIg8Qak9Ui7kXEhDm6-ml-3mHTCXmhyBmb9YqGhT1mrQU928Ce5rjq63Ne7L46eIGow","width":3456}],"place_id":"ChIJgST_bu-gJ0ERPgD23D-cnoo","rating":5,"reference":"CmRSAAAAMLLFpoMepZDtlggsbAAlldLJA7kS0lfsw5kaRIj6m-pjduVC3i-Nirq0SwkRD8Rbi2kO4ThoyFD4CfPd9rwJVIzuacwlEshnEJWhsKof42_Bc44pmY-xNh0E_cRM8KiBEhC3Rb8j_USNbhRmeQE7Ce9sGhTNthH4rQeznmweK4GjfEIDxxZ1Qg","scope":"GOOGLE","types":["museum","point_of_interest","establishment"],"vicinity":"Chernyshevska Street, 4, Kharkiv"},{"geometry":{"location":{"lat":49.99884609999999,"lng":36.238475},"viewport":{"northeast":{"lat":50.0002218802915,"lng":36.2398300802915},"southwest":{"lat":49.9975239197085,"lng":36.2371321197085}}},"icon":"https://maps.gstatic.com/mapfiles/place_api/icons/museum-71.png","id":"e81f37810e2dc9f3e5219d42b14469b9a2801b44","name":"MobiFix.kh.ua","place_id":"ChIJaT6oH-agJ0ER7M-HRh3v0bA","reference":"CmRSAAAAK4sBptz3-K4LNe8QQEjHPVsqSpo4d7voCfz-rvvLsKxsCTRqUBgrUeb0vKTXKnce527Ms9MMe4Lv45byoheTdikUA9bIJGrZgOFAlkfKQfynRZ4hnvsRluuvCvFdigTTEhC_A_m2ZJp4BlxqIsiZTRqhGhQI58pWnZja4NWzqmSE3RBplkeTDg","scope":"GOOGLE","types":["museum","point_of_interest","establishment"],"vicinity":"Zhon Myronosyts Street, 6/8, Kharkiv"},{"geometry":{"location":{"lat":49.986295,"lng":36.233929},"viewport":{"northeast":{"lat":49.9876439802915,"lng":36.2352779802915},"southwest":{"lat":49.9849460197085,"lng":36.2325800197085}}},"icon":"https://maps.gstatic.com/mapfiles/place_api/icons/museum-71.png","id":"7a946be61d11ee62c9661363505ffc54349d6637","name":"Muzey Kofe","opening_hours":{"open_now":false,"weekday_text":[]},"photos":[{"height":1010,"html_attributions":["<a href=\"https://maps.google.com/maps/contrib/111522232254316715034/photos\">Музей Кофе</a>"],"photo_reference":"CmRaAAAANuLVSbmHerJdrALU43X5Diy0TkkuqJR5WZZ2HI2UyYKPzfK2970CBdXdtDCbqP8zyqzTtTCynBYtvJdcFu8lZnzEoPMLRh-nZWm6gGIVPnhxFfxF26gQvXW4QPhwnPUFEhDBGXhAswHh1dP9cLQrMtr-GhSIkZCuo0T_-x0yIyc3N6J5bmeRSA","width":1010}],"place_id":"ChIJTw9TE_SgJ0ERYoNrp3XjHAs","rating":4.7,"reference":"CmRRAAAAQ0cm-czTuhDDhd3mPYhxhJERpPVzy-5octD4PLPNwFn7aw7gyol7wRHTXDv4Eo_u06lLyiQtuTA1lLRszVMRTIl6Fa4mXIahqSRmfOhpfykIJUle5x5dab6mXiR23AX8EhDudpffFUCLO_V_Zxi2IOlzGhTEBM8XOP3cS8ajiZex9gezR6UsZg","scope":"GOOGLE","types":["museum","store","point_of_interest","establishment"],"vicinity":"вул. Кооперативна, 6/8, Kharkiv"},{"geometry":{"location":{"lat":50.00102,"lng":36.24782149999999},"viewport":{"northeast":{"lat":50.0021905302915,"lng":36.24902463029149},"southwest":{"lat":49.9994925697085,"lng":36.24632666970849}}},"icon":"https://maps.gstatic.com/mapfiles/place_api/icons/museum-71.png","id":"3a05f41ad18bf6b6f86371a667c3f5be03e58a23","name":"Chornobilska istorichna maysternya","opening_hours":{"open_now":false,"weekday_text":[]},"photos":[{"height":2322,"html_attributions":["<a href=\"https://maps.google.com/maps/contrib/111689886600233166585/photos\">Denys Tkachov</a>"],"photo_reference":"CmRaAAAA_XFrBm-P9rLYZ0QhSz2CLn8RfVqOfH_rp6NGbob2gwg2vqiwRRXykG6wKTbOvjWplvHQ2_TVPPYSIGteehvjRmJFVy_km-750y8f5MH8zDPtIed4JdkK4f6LI5XtGnZrEhDeAn3xTkS5N9SaqbMV7ti9GhS9uHKH_XfrmGo4X41ZyXR-0gr8gw","width":4128}],"place_id":"ChIJX7eyY8KgJ0ER6EvjJMTXRIk","rating":5,"reference":"CmRSAAAA5VJgCcQFLeOh38yZTx8kcns5GlfNnpFHRrfDK2ofYp9SVOpyFCyGvwhWR52Y6ABpuvvNGxFHh2NfeETcLKNOuc3Ug5qFpmZPr_IOHXPL_vCTd20vAa4CDrVJr2KPwJxZEhAFl-50MYdtN9fwQen1Cm-0GhS8gazk9uApx2FXw_3NvsP4TmwhUQ","scope":"GOOGLE","types":["museum","point_of_interest","establishment"],"vicinity":"Bahaliia Street, 1, Kharkiv"},{"geometry":{"location":{"lat":50.0018148,"lng":36.2475631},"viewport":{"northeast":{"lat":50.00327333029151,"lng":36.24899903029149},"southwest":{"lat":50.00057536970851,"lng":36.2463010697085}}},"icon":"https://maps.gstatic.com/mapfiles/place_api/icons/museum-71.png","id":"5c74518b5ccb19c3f5b12723ac8afcac757b0c58","name":"Galereya \"Kristina\"","opening_hours":{"open_now":false,"weekday_text":[]},"place_id":"ChIJuXFX8sKgJ0ERyEwxGEfL8xM","reference":"CmRRAAAAE0W6_l9gTMuxhG4gI3cruqnBNj5NuX8v8KSAwDzBN8svfGEFzyt_gwd1nYEMj7m71qYjm272TpJfQNiOEyaFasZFWmKj0hOqXfxarCIFYIXAVsKmFmuRZfdHUK4TVjSDEhD5n6oEWPOXDgS_MtClrqBYGhQ3Qmq6iT5Ede8WT8sfR2r_m5OreA","scope":"GOOGLE","types":["museum","point_of_interest","establishment"],"vicinity":"Maksymilianivska Street, 8, Kharkiv"},{"geometry":{"location":{"lat":49.986831,"lng":36.186878},"viewport":{"northeast":{"lat":49.9880219302915,"lng":36.1882623302915},"southwest":{"lat":49.9853239697085,"lng":36.1855643697085}}},"icon":"https://maps.gstatic.com/mapfiles/place_api/icons/museum-71.png","id":"9b26203c81cde2550aa4c4128c5685005d969be8","name":"Muzey advokatury","place_id":"ChIJB1TbHK6hJ0ERsGGqqTbW4OI","rating":5,"reference":"CmRSAAAAWj6sKRkmfHmEv1rg8dHxFJpe998n6OrarCqkKljzMUX1rKyIPaGz33TD9SuOf9mK8V-7WNDiS_cyDZ4ROIt0ZEX0YEJW0raQudtH10VZ3oM1LeklsKV6scGPDDvzn2CtEhCKBSVykx4_ixzuPe0Ho4SNGhSQX7rvtXk7PfkoeSGzbvt3Lujdaw","scope":"GOOGLE","types":["museum","point_of_interest","establishment"],"vicinity":"Illinska Street, 68, Kharkiv"},{"geometry":{"location":{"lat":50.0433578,"lng":36.1901418},"viewport":{"northeast":{"lat":50.0447067802915,"lng":36.1914907802915},"southwest":{"lat":50.0420088197085,"lng":36.1887928197085}}},"icon":"https://maps.gstatic.com/mapfiles/place_api/icons/museum-71.png","id":"f042173161c5cb5c04afc860b8777f32569e6487","name":"Kooperativ \"Chervivyy\"","opening_hours":{"open_now":true,"weekday_text":[]},"place_id":"ChIJzT79c_-jJ0ERaemqUo_iGYw","reference":"CmRSAAAAhsBF030Y1WQgXfllu7Isg9zzOUGTbSAbPyV-_df5YxHyoMD0HmlhEtRtENcAdMK4zZWX7lSjjbCcnrAGkCh-K5ZjKO7Os1QvypvpI3kbIgiPGfcx4SgXcB533rIxxMZLEhAVRVoWn3qaleeJ2LQVlyvhGhTUGV-RB572DxGfwrVct2yoEN8qKA","scope":"GOOGLE","types":["museum","point_of_interest","establishment"],"vicinity":"Bukova Street, 8, Kharkiv"},{"geometry":{"location":{"lat":49.9662557,"lng":36.32263799999999},"viewport":{"northeast":{"lat":49.96752318029149,"lng":36.32393453029149},"southwest":{"lat":49.96482521970849,"lng":36.3212365697085}}},"icon":"https://maps.gstatic.com/mapfiles/place_api/icons/museum-71.png","id":"ef917411af46796bd31b2006653bb1b41cc7be7f","name":"Музей керамічної плитки та сантехніки","opening_hours":{"open_now":false,"weekday_text":[]},"photos":[{"height":3984,"html_attributions":["<a href=\"https://maps.google.com/maps/contrib/106762802436949466252/photos\">Bogdan</a>"],"photo_reference":"CmRaAAAAuY47pxtASHo9wPCyKGrbkZLuSZTe0c8QXNZ_Z_4ytQFz2dBZscoquwGuiLV_YK2fl0dC6fbEDUeG5tuVBiHeW5DhTtcYYbODqNfzRFcRleLq65rSdpOGg1CKrMLYZ8oIEhDDWlvtRfMENnd52IbgI-aXGhTK83gsk9ttdw9Eck-XPSmkgCRAnw","width":2988}],"place_id":"ChIJ0Q3CSU8KJ0ERQGvOlJ-FR6I","rating":3.7,"reference":"CmRSAAAALcxKtcH98IlI4uqdIW3dxdNa8gBWg4FJFr7RG51jDpiV_r7OoSQpwFupX3rIqLVBSJZP3L-RA1cQVKErp7uMV90OyN7bOrJwXZegzusSz1ih5Ej5Yw4pTJJF1Y9-j1m_EhCHhJmGf3A6nrgX78rAznNWGhSQQ6YthducTPqCZxhXc_d_NgCLHA","scope":"GOOGLE","types":["museum","point_of_interest","establishment"],"vicinity":"Moskovs'kyi Avenue, 257А, Kharkiv"},{"geometry":{"location":{"lat":49.94845,"lng":36.1369491},"viewport":{"northeast":{"lat":49.9497789802915,"lng":36.1384210802915},"southwest":{"lat":49.9470810197085,"lng":36.1357231197085}}},"icon":"https://maps.gstatic.com/mapfiles/place_api/icons/museum-71.png","id":"0e1633c563d09b1f93be31ab1289cbc8b601c7ca","name":"Workshop Dmitriy Bragin","opening_hours":{"open_now":false,"weekday_text":[]},"photos":[{"height":804,"html_attributions":["<a href=\"https://maps.google.com/maps/contrib/107842313252414868362/photos\">Workshop Dmitriy Bragin</a>"],"photo_reference":"CmRaAAAAjSk6t6IxUF0nFIPCKbJBpEPinP7F84blXCPA8olv3G-qsdM1GuFYcmrnQyVpKDip1A22kGM3b1XkEeyxeCrOveJnHL-bGlyldAqvLA8H69FfONlbogLVSDIXvoLRUIFPEhAbLbLzRdTRn7Nov_i1d9G-GhSsu-_rm3qJoG7VYTlyj8Q3dVomTQ","width":960}],"place_id":"ChIJaf0VAHWfJ0ERZaCAz3a4jxA","rating":5,"reference":"CmRRAAAAsGsMt63cn3seRvfxR-In4uzlpB7yh2mUWaM2GcJ4jQWi9fXT_ljWe4fy2aur8DpyXpf4mFE9cuuWFpPAUtn-BBQ-EzjfyYACPcY72NVScqp7i5UkdR-eJmAlgZ0lbRFQEhBGQmWH7Sz_9TBnKDTlHOLRGhQCFpJic3tR4sBXW1hXVwInou43Fg","scope":"GOOGLE","types":["museum","point_of_interest","establishment"],"vicinity":"Katajeva Street, 16, Kharkiv"}]}