{"places":[{"geometry":{"location":{"lat":50.0031652,"lng":36.2248593},"viewport":{"northeast":{"lat":50.00451418029149,"lng":36.2262082802915},"southwest":{"lat":50.0018162197085,"lng":36.2235103197085}}},"icon":"https://maps.gstatic.com/mapfiles/place_api/icons/generic_business-71.png","id":"760a29af73662d7304c6e533cfa39649002f097e","name":"Kharkovskiy zoopark","opening_hours":{"open_now":false,"weekday_text":[]},"photos":[{"height":730,"html_attributions":["<a href=\"https://maps.google.com/maps/contrib/104253587769969475059/photos\">Харківський зоологічний парк</a>"],"photo_reference":"CmRaAAAAJqOTg5rt7Iqp_nWlUrOOkZazdAn4QPgvrNGCLIxbnu9rnRpvnlvR1KCqZbzdnk8aUumUF2TJCBuZb2tbWtDahO_Wu9njgiCOTvdApy_J-tiAufyYy9Faz9a5MdZ1fkbLEhDKl7cSVH2jqxcfekoMNWdyGhRqYRPZhP5G0dthztmsvkWtWSEqQw","width":729}],"place_id":"ChIJM7zOa-GgJ0ER87F-rNLJWKY","rating":4.3,"reference":"CmRSAAAA-E3ypk-38mP8LOAAmsikbJ88ui90w2T1NBU4JYaJ5RvX8K8DhDOMKOk0m_h1RPwQWv132V90IebOkdGOPvjh0QgBxOwwWJGQeB2zCU6i_ARZjwLtTfhxn_d7cIe6k_PtEhAWlEHobY8P_2cnhYvY3aUKGhSl7kEiff657Yv21ctk2bObleUSnA","scope":"GOOGLE","types":["zoo","park","point_of_interest","establishment"],"vicinity":"Sumska Street, 35, Kharkiv"},{"geometry":{"location":{"lat":50.0163036,"lng":36.246709},"viewport":{"northeast":{"lat":50.0176525802915,"lng":36.2480579802915},"southwest":{"lat":50.0149546197085,"lng":36.2453600197085}}},"icon":"https://maps.gstatic.com/mapfiles/place_api/icons/generic_business-71.png","id":"037aa194e8f59d7a6d4ae1a0f40616acb3fd6608","name":"Maxim Gorky Central Park for Culture and Recreation","opening_hours":{"open_now":false,"weekday_text":[]},"photos":[{"height":2418,"html_attributions":["<a href=\"https://maps.google.com/maps/contrib/113259653106432297186/photos\">Igor Nayda</a>"],"photo_reference":"CmRaAAAAMdT1ZoXYIQEWn-0W8edUccUTxMwTnXjafUvx1QZdF-Hk7AXpLgzovUoTWCkAqORapLtB1JHLUnicYYF5KWLKq5RtVb1eGnvPeFK0P2XUGzHSzHG556nBpKh0mywpmNmuEhARa-x1VmJxtnqbH4zHSmqFGhRnGlLAhuqWDsxBGgGhuB11zvhzYw","width":3291}],"place_id":"ChIJjZ4r7SqhJ0ERKtxxFOp1sBM","rating":4.8,"reference":"CmRRAAAAIsvoUADnIFbpcI_iMWyyzV2cGZ8IpKUV-y0ruLO_Ocw0YbTzqQbLF4zpj4vXcROf0O9_JCXxMvyOmNA9N-NIUFKuI8kTs-E85VUW7W2va52Scnnj5ua6jDDVcwFTi4LOEhBJUabRQbvScJySRgI_eH-jGhRcACUQyJor_EgRfcdNyV00Of3gOw","scope":"GOOGLE","types":["amusement_park","park","point_of_interest","establishment"],"vicinity":"61002, Sumska Street, 81, Kharkiv"},{"geometry":{"location":{"lat":49.987312,"lng":36.233245},"viewport":{"northeast":{"lat":49.9885582302915,"lng":36.2346721802915},"southwest":{"lat":49.9858602697085,"lng":36.2319742197085}}},"icon":"https://maps.gstatic.com/mapfiles/place_api/icons/camping-71.png","id":"86ab955c6a2d528237bc28933bea3d8d4895c472","name":"Magic Camp","place_id":"ChIJbTdlA_SgJ0ERUlpP9_8gWok","rating":5,"reference":"CmRSAAAA48WsFUNpGo6XD8IXtRM66JZ8sibPjt8mIFYj4Fzyd7G8DbzsN8ko79aa_pcATmFBtawr_rDW4ltIdPMzNG3yz-QL0CyzBT0wtnTLgwomOPASHu0hCEbWduqBWfSNoO2ZEhB8sksW5NZLxafWg3WJl1GNGhTAkNjP9yWyDEbP5ydEtSyPmReOlg","scope":"GOOGLE","types":["campground","park","lodging","point_of_interest","establishment"],"vicinity":"Kooperatyvna Street, 7, Kharkiv"},{"geometry":{"location":{"lat":50.0562222,"lng":36.2692003},"viewport":{"northeast":{"lat":50.0576528802915,"lng":36.2709597802915},"southwest":{"lat":50.05495491970851,"lng":36.2682618197085}}},"icon":"https://maps.gstatic.com/mapfiles/place_api/icons/restaurant-71.png","id":"b5fd1b7aac067ca1ede8e0ee402f462e74aeb722","name":"Panske selo","opening_hours":{"open_now":false,"weekday_text":[]},"photos":[{"height":2432,"html_attributions":["<a href=\"https://maps.google.com/maps/contrib/107582294903239533098/photos\">Игорь Вацек</a>"],"photo_reference":"CmRaAAAAUz3tL6X2YrmyDv1Arp51ReUQ5OXXtzol8HyF1NzMhVbsOSPaF9BOb3J3FQ8oQMlYQGlEvV0kae5L5PmkJCKI0Lv4QRkkbWi7WaF9fak_HinyIYmaulmVRb_I7UYSDiUgEhAX898gGU5o_qNDoMA3MhrYGhT2OCoZ9XcVCG8oaCKWwoseY7ejmg","width":4320}],"place_id":"ChIJQ5Jw2_OmJ0ER62Ccsda_w_A","rating":4.7,"reference":"CmRSAAAAPmGpXclQYiINGzbObiZ0Sa2Zi5K301LUSYWP2dytaCMf0fH0zQywpbnO-4NbnShp8rV1nJIHQIG2RGyIxbZivBrH3YvOD4HUNZnnp3ArsWbWXxi6vMS6Kxuqn_mZoareEhDo2qKobfbdS7vEzj7GR1EkGhTYb8BoOQpSZLanT-KpvsgB_2ZufA","scope":"GOOGLE","types":["restaurant","amusement_park","cafe","park","bar","spa","health","food","point_of_interest","establishment"],"vicinity":"Bilhorodske Highway, 7, Kharkiv"},{"geometry":{"location":{"lat":50.031053,"lng":36.34236500000001},"viewport":{"northeast":{"lat":50.03222483029149,"lng":36.3435608802915},"southwest":{"lat":50.02952686970849,"lng":36.3408629197085}}},"icon":"https://maps.gstatic.com/mapfiles/place_api/icons/shopping-71.png","id":"9647d570b5db6b7e435f1953f7ee1c1e8648ff79","name":"Torgovo-ofisnyy tsentr \"KONTINENT\"","opening_hours":{"open_now":true,"weekday_text":[]},"photos":[{"height":2448,"html_attributions":["<a href=\"https://maps.google.com/maps/contrib/100957327156576586195/photos\">Стас Гилев</a>"],"photo_reference":"CmRZAAAARNgoKqbzHYeYp_C8Xnq-U6vwAUYiEO91nE_oVjcF-3ZWKgj9rhJSKsYwG4ZvGYGKlImhv3452SlU32Pdlk4p6DCk9WeT8AL7NRk_HaH2KROBfuWAtOvpnpCHY-FwCZq5EhCvkd4Pfo1Csk5vxcAzjz_4GhQd8WWiefrGvLszz1ffqZs4OsECyA","width":3264}],"place_id":"ChIJwVOzLfigJ0ERf0_FBG3Qzug","rating":4.3,"reference":"CmRSAAAAR6NtkvhYFjtKwv5xDjyj9aQhcGJ3jz-JtpDvLMAc2WtM-5KlEEyo6zi3n_n8B8HkHHR7PaBO-D3O2GwksQbnEI_llg83QrUo9OdZ6id6wYB8HRk_DkBGME11c6puMdo4EhCvTyJH0W-dJ7K4LLDMH2lvGhQQ8UZNtmFQjjUaB7R6PjPMRVwgdw","scope":"GOOGLE","types":["shopping_mall","park","point_of_interest","establishment"],"vicinity":"Kontinent, Buchmy Street, Kharkiv"},{"geometry":{"location":{"lat":50.0376069,"lng":36.1850998},"viewport":{"northeast":{"lat":50.0389558802915,"lng":36.18644878029149},"southwest":{"lat":50.0362579197085,"lng":36.18375081970849}}},"icon":"https://maps.gstatic.com/mapfiles/place_api/icons/generic_recreational-71.png","id":"1bea41a7c8ec8b92d7c43f1c9cabc48d53e6e79f","name":"Lugopark","opening_hours":{"open_now":true,"weekday_text":[]},"photos":[{"height":3096,"html_attributions":["<a href=\"https://maps.google.com/maps/contrib/106225745886493762818/photos\">klim Chernikov</a>"],"photo_reference":"CmRaAAAAQjNonVq5cDThVmbQhhOtEfYXOGmJ4QvXqcsVgiJRNSvwrioczPC3LgcgKK7Eymc9mMN6DhpW37Vhqf0vTrum4xEteG0azW052SLRja_rAiKP4MYxr_CUuuraX6DJOGrUEhCKTWXwqr_IY2k4BQXhj53BGhQ2FDJylZ585ZrTdqzRLl-ajykdsQ","width":4128}],"place_id":"ChIJxyEG1lehJ0ERUoSTfG_ooF0","rating":4.1,"reference":"CmRRAAAARCdSjJu5Whex-3AlVrUNXiKRR_lhy3hh0ABzwnEuzrhxZ2NC7jBPOteNinHQfW7MgdsabT0H5omeoy6Vw34p0MQfGM_5BiRLrAUR4eP6XB5ru1rIxTUd6RuWwCmcGfJgEhCbhSUWQSIwJLNhj2pNvYQSGhReLatGU-S_WQtvIQWzg_YUHgoKcA","scope":"GOOGLE","types":["park","point_of_interest","establishment"],"vicinity":"Kharkiv"},{"geometry":{"location":{"lat":49.987312,"lng":36.233245},"viewport":{"northeast":{"lat":49.9885582302915,"lng":36.2346721802915},"southwest":{"lat":49.9858602697085,"lng":36.2319742197085}}},"icon":"https://maps.gstatic.com/mapfiles/place_api/icons/camping-71.png","id":"5f409cd9f49629538addefb9c7c81ac59c9109e8","name":"Umníc","place_id":"ChIJbTdlA_SgJ0ER54u9mZ4Hu0k","reference":"CmRRAAAAzQaw58UojuwF_b2f_XM36bPk5HN4w-mhGXQDH9zQP4dPMYoX8cMkEW1hTuL48yQhkH5R3W3G4c7TRM6iCzzRwkAAJeH3_Y8pZXGYfsskivMyB_-aT7s0AHS3Ag-wuB5_EhAlpnWzcnKtuxSFKlykeG80GhQc2VIu6LBQndBA1gNiaSUFzUteRw","scope":"GOOGLE","types":["campground","park","lodging","point_of_interest","establishment"],"vicinity":"Kooperatyvna Street, 7, Kharkiv"},{"geometry":{"location":{"lat":50.00338099999999,"lng":36.29548},"viewport":{"northeast":{"lat":50.00472998029149,"lng":36.29682898029149},"southwest":{"lat":50.00203201970849,"lng":36.29413101970849}}},"icon":"https://maps.gstatic.com/mapfiles/place_api/icons/generic_business-71.png","id":"ec439c1ba424e8576711011744495520399d8720","name":"Presto-PS - kapelnyy poliv","opening_hours":{"open_now":false,"weekday_text":[]},"photos":[{"height":608,"html_attributions":["<a href=\"https://maps.google.com/maps/contrib/109469940495949590889/photos\">Presto-PS - капельный полив</a>"],"photo_reference":"CmRaAAAAD8WYIe4Pj_U3FJM53N0JI0UsM4WWBK96TnwmLnOisCdqsKLYkdA9e2xP6Y9l4tX-SI-GuRw2ZHeT7HzPKybhCZjyUNHOtItbxuJaYwNMVROGSqJ4Ddb61I4AEV2D_Ex4EhCFovrB8bPAindkDkp6NVgAGhSEgEIqTHgBDD_4ZHxVhkcbZXPDaA","width":1080}],"place_id":"ChIJExZMVqygJ0ERJEoMfb0DPzc","reference":"CmRRAAAAT367BZxb2waIBFKV4svrTCd0UfjxcZoiZEIx4HbSDuveR3S5gJoAPfuo0saLHL8_NYbsqaoah1CZdcjmOr6t8056gQUJjuMn1hV9DfXKi_xZg-ZSq_URjA4_QWDpJWWFEhCfvw95JgeZhG0KR68JKeVKGhT1OBBSREZFpzntmeySGz0lESL00w","scope":"GOOGLE","types":["park","store","point_of_interest","establishment"],"vicinity":"ул. Елены Стасовой 18, Харьков"},{"geometry":{"location":{"lat":50.0272265,"lng":36.2247253},"viewport":{"northeast":{"lat":50.02866728029149,"lng":36.2260107802915},"southwest":{"lat":50.0259693197085,"lng":36.2233128197085}}},"icon":"https://maps.gstatic.com/mapfiles/place_api/icons/generic_business-71.png","id":"b8afaec177ff2ea5357fb12dbe060186d2375588","name":"Strakhova kompaniya Knyazha","opening_hours":{"open_now":false,"weekday_text":[]},"photos":[{"height":960,"html_attributions":["<a href=\"https://maps.google.com/maps/contrib/102258128370100622202/photos\">Страхова компанія Княжа</a>"],"photo_reference":"CmRaAAAAYMv8uJI5VEk9AR1ekdgAGLtNrgiTeXvWagHPgp42TH_NFG2FeYhyHCbOqOCob5l0jT-7RmXnOnU1-15mjr7c55DxfdcDw5lvKo7MiawRmQL7pGJha6_YrCuZgIRr_j1vEhCnXPNQjP30HAWdk1886mKbGhQBQOx5Npj5WASTkqrEdENwDRa_Ug","width":960}],"place_id":"ChIJvY38EzShJ0ERvANNTWf41Ww","rating":5,"reference":"CmRRAAAAt9KwEll7uQMFr7VUZLe6qiyXfPS5ubzxc3i-biM1lEv_dBqmqRKpNcqdydKUxA5BC3TY9Ib-ihi8XaqVs7okvgyLcuglGF8qrmUQiB8z4d-vHhal2FLHjTeOrmwU1LjQEhCWCBHH3sWvLQx-n8t_zxcEGhR2lQ2vZkwGRc22SiqW2wif5Z9-Mg","scope":"GOOGLE","types":["park","point_of_interest","establishment"],"vicinity":"Otakara Yarosha Street, 22, Kharkiv"},{"geometry":{"location":{"lat":49.8951049,"lng":36.4530241},"viewport":{"northeast":{"lat":49.8964538802915,"lng":36.4543730802915},"southwest":{"lat":49.8937559197085,"lng":36.4516751197085}}},"icon":"https://maps.gstatic.com/mapfiles/place_api/icons/generic_recreational-71.png","id":"c1ce66999765911d814e7fed17d29691e4b04ba1","name":"Kharkiv Arboretum","opening_hours":{"open_now":true,"weekday_text":[]},"photos":[{"height":3120,"html_attributions":["<a href=\"https://maps.google.com/maps/contrib/111765992010884138864/photos\">Слава Волошин</a>"],"photo_reference":"CmRaAAAAXKsVK6Z2_dDB9W5D94sc3cMfJxH1XispKkitwsBDICyL7ZDo4_pSGlTmKlj9QFW5_sZF1ubxDIfvVD1wTtbndzNQHPztK-SWHtMjgfmgR1zXZXM0JFi3sY-z3GpHHLyVEhCo7seaQGSL4euatB7HYDhvGhTjSn7IQxihqLtVbvVZgp4wQm0ljg","width":4160}],"place_id":"ChIJUzbmswwNJ0ER_sY4UgK6L9A","rating":4.5,"reference":"CmRSAAAAHP4jYDzFsuSAbFIWvnaH7kvA_S5tvJYu89YVvPFpzmKlAZ-6kI83L8D59u7Sp0cqDgCozXg--n4ci2VJmvW1IDKFL81npiwqoxYcuEsQhynKrUcoPNwnBeeBGv9-HjnUEhAl3rFoR1-qHIiRbyTybENZGhRnKJ2a1jyumTHJBMcG_L2wwQmJ8g","scope":"GOOGLE","types":["park","point_of_interest","establishment"],"vicinity":"Komunist"},{"geometry":{"location":{"lat":49.9675717,"lng":36.2927494},"viewport":{"northeast":{"lat":49.9689206802915,"lng":36.29409838029149},"southwest":{"lat":49.9662227197085,"lng":36.29140041970849}}},"icon":"https://maps.gstatic.com/mapfiles/place_api/icons/generic_recreational-71.png","id":"c1a07040e3e94008c957bc293dfcc42fa020feaa","name":"Mashynobudivnykiv Park","opening_hours":{"open_now":true,"weekday_text":[]},"photos":[{"height":1200,"html_attributions":["<a href=\"https://maps.google.com/maps/contrib/103999212235481706288/photos\">Александр Николаевич</a>"],"photo_reference":"CmRaAAAAYNnR776fK6bdvh_XK9nM3Qni2iuVzztZ-i1zFpfSCgeUvunr-cSHJqqDAUAGxTOlJc3BZ8NkC3UU-_EpMFyqgMECnk2ozfSq7yhQw3Wf12GWb2vs6FutQB5b5Ieib9u_EhBwXiPrlHDJLjZyBFYLIxwDGhQZPNSY1YlGXvTBBAvm5b6aKOn2Mw","width":1600}],"place_id":"ChIJN1LVeGYKJ0ER1r98CLCdonM","rating":3.8,"reference":"CmRRAAAACIfYVeY1jNilOcqBLBZuaizVFkshmZhqydA84_S5VFtt6jroPUaEe9ZL254oSIYgUFDohijj3-hKhOjmcYpBfDRPAcffzNRncQx6s7ERh9wT_Ehyo8R-Ie7qxYP5yYF1EhBuZDRfXI1GgOsMP0KLj31pGhQt49n_mq8Ry4ZM5DBb9TjLFMd2Sw","scope":"GOOGLE","types":["park","point_of_interest","establishment"],"vicinity":"Plekhanivs'ka Street, Kharkiv"},{"geometry":{"location":{"lat":50.02672159999999,"lng":36.23151169999999},"viewport":{"northeast":{"lat":50.0280705802915,"lng":36.23286068029149},"southwest":{"lat":50.0253726197085,"lng":36.2301627197085}}},"icon":"https://maps.gstatic.com/mapfiles/place_api/icons/generic_recreational-71.png","id":"81bb81db1786b397e77533bd90ce6ee2c4d15a91","name":"Sarzhin Yar","opening_hours":{"open_now":true,"weekday_text":[]},"photos":[{"height":2448,"html_attributions":["<a href=\"https://maps.google.com/maps/contrib/114334329606071534779/photos\">Сергей Щербаков</a>"],"photo_reference":"CmRaAAAA0ermH4c8uZomXYMG8OqH4esJG1Sl2LfVLtFa_ctYZqLoIchmEDZfysNr-ouRPTVVvDVMKu3pfETRY0Wm77CFKexw0-rIk1IopioJIlDMGt48j-iiQCZxKFzruthS_maWEhBRldZDZhe2Man1P-4Iu4XOGhTsT21MYKVd683j6Wn6vcKQKhzyQA","width":3264}],"place_id":"ChIJG6mPQs2mJ0ERvltEHdjq7sE","rating":4.8,"reference":"CmRSAAAAxVI5Wfc4AsdHfCPMrol-82hTlbEaAV4MnoQWeEX4tukQfucmhYokLBOdF51vvUQLHhzPN2is5tnK0g9EUyXTIeZbSPa0TheJOUi6UtEVHSgllmDnAW-RcCA3_CPOIY7lEhCuY7HnDXTV6N2cf7B7aSJQGhS8n9hE1PrKMvtwb2Pn6_LGP-M93A","scope":"GOOGLE","types":["park","point_of_interest","establishment"],"vicinity":"Kharkiv"},{"geometry":{"location":{"lat":49.9998878,"lng":36.2247368},"viewport":{"northeast":{"lat":50.00092323029151,"lng":36.22578103029149},"southwest":{"lat":49.99822526970851,"lng":36.2230830697085}}},"icon":"https://maps.gstatic.com/mapfiles/place_api/icons/generic_recreational-71.png","id":"523b7ed0f672f0239a1c0ed3446fb8b93c2e02ef","name":"Botanical garden","opening_hours":{"open_now":false,"weekday_text":[]},"photos":[{"height":1520,"html_attributions":["<a href=\"https://maps.google.com/maps/contrib/105050871025124141699/photos\">Слава Василенко</a>"],"photo_reference":"CmRaAAAAq0yUJKubKpQLWaTogCsgA6Wy9shBMN11qZGF0aC4UvjfiDSayA3SIwZu7AMIWZRwiMsGmD1-e8-b2mjt3ZmB8C6HVWnRSKGFQclFgx39jMzBsW9PCV1iaJ2N3_4ghqiaEhAyxiwgY8jABzuAjp3j9gqnGhTLefu5R2eONpJg0HiqiZSofxKA8Q","width":2688}],"place_id":"ChIJBfx_peOgJ0ERSpYCrntyJMg","rating":4.5,"reference":"CmRSAAAAgM-3Zc4VIGrhYMnB-bJD0zp3-mU_MqQjrCQSaJQxD4Uvd7O9igcOJGcGMsJbxAT73wyBUR_1M3mcSCiF5upJ2gNOKij-zVb3s8vMsoce8Hie8CMNpvAqA03fIFTI_H9xEhAQQ6Zf-Xac1qVb7MPN8nHDGhR7NYKl0huktV5nOhQoXLjorw2wmA","scope":"GOOGLE","types":["park","point_of_interest","establishment"],"vicinity":"Klochkivska Street, 52, Kharkiv"},{"geometry":{"location":{"lat":49.9858869,"lng":36.2259096},"viewport":{"northeast":{"lat":49.9872358802915,"lng":36.2272585802915},"southwest":{"lat":49.9845379197085,"lng":36.2245606197085}}},"icon":"https://maps.gstatic.com/mapfiles/place_api/icons/generic_recreational-71.png","id":"814a8d88ab9dfe199d07cc425a83810403161a85","name":"Skver \"Strelka\"","photos":[{"height":4000,"html_attributions":["<a href=\"https://maps.google.com/maps/contrib/101076008467667326240/photos\">Дмитрий Скуридин</a>"],"photo_reference":"CmRaAAAAlzAHneML5hBokuJu9iQ1oogNv3ulWSSIteNK-QnH0ErNyp2cIpzzJIz48tDQJ15P08-B05E8f9rfgv8FPZDSOU2UKlrxrTFXAz8jB4I_6ZPWW-NQd16qJB11La_Y0IbkEhAqwF8YV6tnCwMOb8hZI6WoGhTxegPgYI5abMVMBPrClbON8p2dXw","width":6000}],"place_id":"ChIJ__9rJvagJ0ERWxavb16ToF4","rating":4.7,"reference":"CmRRAAAAZTiTVAC29rEuSrEEQP95lYXmD3glgbM-QGlYqUCnNsr0tMcNTJ6U8V0i7XtU6zGyU6xHkQ0IFrPfqRigKpKRgLOQS7LP8X6lEgOMAxUUnzRomH0C9MFyLC1LaJHMDChHEhDdyR7NwSn6eQuQgYTL6HzDGhSo4t7gsyS3vHt0ZPMksCBH-z-vWA","scope":"GOOGLE","types":["park","point_of_interest","establishment"],"vicinity":"р., Kharkiv"},{"geometry":{"location":{"lat":50.00103010000001,"lng":36.2247032},"viewport":{"northeast":{"lat":50.0020859802915,"lng":36.2257889802915},"southwest":{"lat":49.9993880197085,"lng":36.2230910197085}}},"icon":"https://maps.gstatic.com/mapfiles/place_api/icons/generic_recreational-71.png","id":"566722132a9c5db7d22337517dc619dc5989fb89","name":"Sad imeni T.G.ShEVChENKO","photos":[{"height":4128,"html_attributions":["<a href=\"https://maps.google.com/maps/contrib/109276079978629490051/photos\">Оксана Бусловская</a>"],"photo_reference":"CmRaAAAA7b1lQWZVamYIHRHPr-8T52wdVSHoDnDREgXwpvmSuSpHmnMas3UsSwzpQtUEB55WR0zWzd5R9bplMQ-kgeFl9XSrDoDar0Ymn1IdljFsAj95pbIt-ka9mLwwz5fhQF0HEhB6PkVV0jpVtbdulNyK4MGQGhT3WhNy_9Npqmn1TVN8z3tLawunDg","width":2322}],"place_id":"ChIJ2QnUN-KgJ0ERCAtoLAP9vNc","rating":4,"reference":"CmRSAAAAN2J1lxXy0aac-jwodPl54ZL83ZqFBYU4hfLmF7qIL4Ohlu61OJ7CYmtY6xbArABVQfYFoUirdPmFWDRR_7P5_FKdvIz-Up7KgvcxhVWK_K3QhIqPEDFvFZGJd4lLvBuGEhD4y-JcElnMe3hNOBwEkXRZGhRfGA5aQ9iIHAGF6lafQbYXRV9iuA","scope":"GOOGLE","types":["park","point_of_interest","establishment"],"vicinity":"Kutova Street, 16, Kharkiv"},{"geometry":{"location":{"lat":50.0018258,"lng":36.2315043},"viewport":{"northeast":{"lat":50.00590085,"lng":36.2325328802915},"southwest":{"lat":50.00046745,"lng":36.2298349197085}}},"icon":"https://maps.gstatic.com/mapfiles/place_api/icons/generic_recreational-71.png","id":"520ff5c33fd88fb59fc5fcc5a8a49e9c61ea52a3","name":"Gorodskoy sad im. Shevchenko","opening_hours":{"open_now":true,"weekday_text":[]},"photos":[{"height":2592,"html_attributions":["<a href=\"https://maps.google.com/maps/contrib/118173457983394756788/photos\">Ольга Иванова</a>"],"photo_reference":"CmRZAAAADbz9zYBomJLGAonqccZkQqxocUR9fHkbA05Yn2ndjxM3KmiC9TSB88YvDgckUAIw_Sn7zXFx9oIFr3zJWQ_PNB9O8AQ1rWZF041X8HCa58160gAFeu1QRHssnqWo6ZkREhBPvw3WdrNH7wpFM1WZ46EcGhTvDCK0w5b8ezH659pD-Uo9vZnXOg","width":3486}],"place_id":"ChIJufZa_eCgJ0ERHeTIrlQJuH0","rating":4.5,"reference":"CmRRAAAAQxXMjLWLgzOim4_RCQJ7v0axCcDzSLCQxYSfVfK-DGl45eIrcMJOksaJXIELMMI8q1fwrLnWbofAttNXXhD9T0IZ2p-ucfXfSGed5eQd6sn-f0FXCYpP2UV91IGgqoICEhDp-Bebo6kCAYkSDq6xJDY2GhTVEECO49QpCXThbHchj9RiyfNJsQ","scope":"GOOGLE","types":["park","point_of_interest","establishment"],"vicinity":"Svobody Square, 7, Kharkiv"},{"geometry":{"location":{"lat":50.0079912,"lng":36.2473008},"viewport":{"northeast":{"lat":50.00946683029149,"lng":36.2480191302915},"southwest":{"lat":50.0067688697085,"lng":36.2453211697085}}},"icon":"https://maps.gstatic.com/mapfiles/place_api/icons/generic_recreational-71.png","id":"913acaddd58c6e4ba81f3b4d40555ee82ee59cf5","name":"Могила Петра Гулак-Артемовського","opening_hours":{"open_now":true,"weekday_text":[]},"photos":[{"height":3120,"html_attributions":["<a href=\"https://maps.google.com/maps/contrib/102912239186995246650/photos\">Андрей Власов</a>"],"photo_reference":"CmRaAAAAeQrJfQ-sluC-cRAgFNT_0URMgY8GNGEWWwy9wewxFGKDh5N6XpMY0wiAmyjV3pm158kLmvc-Qh4PZLlRpdfHLADQMkJ8H_lrDEN8raMPaDxmNuqTYVkJkmcwjvbHBsUsEhCU4g-_0AZ-jJTxNXiM9DPdGhRStuJTA8xGPFvkw50zhV_Km5LHfA","width":4160}],"place_id":"ChIJSYyACdugJ0ERiVQpUhqHFS4","rating":5,"reference":"CmRRAAAAr10nlXJtXiUdNXE-qcPj1AUB8iw4pmGQ80RDde9elbbn55vq1QJ8BAA7eidG39Jlrw6fpFmGwDVfnX_ze24q8SezXkFY_ujuaro-mk0ClN39sYBKGFAOF5dOaGd5YreEEhABZKSjXI_iZkxbwFenG3C1GhRBG8WYB7aviSJD1G0vxithuxlyHQ","scope":"GOOGLE","types":["park","point_of_interest","establishment"],"vicinity":"Alchevskyh Street, 50А, Kharkiv"},{"geometry":{"location":{"lat":50.0084385,"lng":36.24843},"viewport":{"northeast":{"lat":50.0099975302915,"lng":36.249476},"southwest":{"lat":50.0072995697085,"lng":36.24529200000001}}},"icon":"https://maps.gstatic.com/mapfiles/place_api/icons/generic_recreational-71.png","id":"d196e99f632fe99f9396465124132853380ee49c","name":"Пам'ятний знак Миколі Хвильовому","opening_hours":{"open_now":true,"weekday_text":[]},"photos":[{"height":4160,"html_attributions":["<a href=\"https://maps.google.com/maps/contrib/103561327643638063223/photos\">Вова Капуза</a>"],"photo_reference":"CmRaAAAAJ_IuXOwcXjEFhM4-Z1vuwLCNNHhIB9vKHXyKwddSb14hH_A0MiNjcTRu3qxvB_KQ19C4NYa3l7AFMqP3amKNmuBEbjLwDTB1KOw_zTshZtHNFWgX5hxGWSJBUlPeYMgaEhAr5PwyOpcS_i8KSB2O6_e7GhRWON7DwXTfb8hQg0IBX50bufm5pA","width":3120}],"place_id":"ChIJr-zEA9ugJ0ERtaDGTz7I00U","rating":4.8,"reference":"CmRRAAAAzQTkKizITJjotSKxDhFE_R_FAeKmYVYu44e_NSqUBh5HwUPRQ8jvdzCQguHSCkHmojkqg_5sXuCUKjSq2wBWlnIjxrN2NJZB4k60aUpN84f3_8wIsuyzpQ88ynTYcOFHEhAW9X_VmDoSff2LF_ElsobtGhR6Py01vSMQOzeG15FvHwpu_8Gykw","scope":"GOOGLE","types":["park","point_of_interest","establishment"],"vicinity":"Alchevskyh Street, 50А, Kharkiv"},{"geometry":{"location":{"lat":50.0083044,"lng":36.2518911},"viewport":{"northeast":{"lat":50.00949353029149,"lng":36.2535627802915},"southwest":{"lat":50.00679556970849,"lng":36.2508648197085}}},"icon":"https://maps.gstatic.com/mapfiles/place_api/icons/generic_recreational-71.png","id":"f8f8898ca20de2cc0b577b7c0b1bb370c0f23b23","name":"Парк \"Молодіжний \"","opening_hours":{"open_now":true,"weekday_text":[]},"photos":[{"height":2322,"html_attributions":["<a href=\"https://maps.google.com/maps/contrib/113228509095232474713/photos\">Sergiy Polshchin</a>"],"photo_reference":"CmRaAAAAjyvSObNhoV6akSKcPBBuUYduPqs3H4KtigQear6ll0IUz5ok__9TSko5kQPc3FuD_AXOgoIyCttIXP8u6d6e9bGNpBMy6Gl-zA1Cfo3RmRa9CeVSv6pGMUY2RQWwXqiPEhBDyNmq1o9BC6HeEBOeZIWmGhRp6PQT5UhBPBz7MV0ceuOUTIyz-w","width":4128}],"place_id":"ChIJSahNztqgJ0ERQN6KQ0FtVek","rating":4,"reference":"CmRSAAAAzfSaZZlPjWWDY-UI67Zu7fi36RPW5MfvxVIFJ8WL0973lMvLuWicgNxOugQVdSUYpRnQgrvrMJGyGiefol_MPyTjHW_yHfkg7DW_HJj8H-IRG81JW6lL04_rp9fuJG5oEhC_5dzLtlx6eTP5HVaQ5KxEGhSCAOHZpqmwmfZKU-PZk1gKCPQrtg","scope":"GOOGLE","types":["park","point_of_interest","establishment"],"vicinity":"Pushkins'ka Street, 100, Kharkiv"},{"geometry":{"location":{"lat":50.0199143,"lng":36.2453445},"viewport":{"northeast":{"lat":50.02126328029149,"lng":36.2466934802915},"southwest":{"lat":50.0185653197085,"lng":36.24399551970851}}},"icon":"https://maps.gstatic.com/mapfiles/place_api/icons/generic_recreational-71.png","id":"996a33297714914e82e57b89a9ca97c6b1e83398","name":"Park Gorkogo","opening_hours":{"open_now":false,"weekday_text":[]},"photos":[{"height":2448,"html_attributions":["<a href=\"https://maps.google.com/maps/contrib/115695865204135864749/photos\">Olga R</a>"],"photo_reference":"CmRZAAAA08wFj14l-81IcBd6GqymneGyQBRFXTLBsMBZJSwVJRs3f885xsfKUOQ1iqhBsjetWZnwa3aWrhzWUxVpLrUWw5qnsbbkJyuty2omruOhUkCSRyIjasSzTYgWogVt156QEhDbXPentCmoyJz6Zw9apXYHGhS9Ys_RyFGdPcFMspSm8gUqQAr3lA","width":3264}],"place_id":"ChIJV3jvQyqhJ0ERHfkG-6U-Tx8","rating":4.8,"reference":"CmRRAAAA16NZ3Ss2i0z01FrqAQhyAisfDqdzURo_aXf0FXUG-KfUuMFwNaA8tf0r_hp6iN7_FFTmd--VzYIJ_gaZHvLpT-tHDLgTw4aKvFx3bgD9oIfXXBmQKhOivopECWzqQyEkEhAXtksAc7zsHORiaUj-moPCGhShIUKTBb5tNf6MECty-PD8M4tUbA","scope":"GOOGLE","types":["park","point_of_interest","establishment"],"vicinity":"Horkoho Entrance, Kharkiv"}]}