{"places":[{"geometry":{"location":{"lat":50.0031652,"lng":36.2248593},"viewport":{"northeast":{"lat":50.00451418029149,"lng":36.2262082802915},"southwest":{"lat":50.0018162197085,"lng":36.2235103197085}}},"icon":"https://maps.gstatic.com/mapfiles/place_api/icons/generic_business-71.png","id":"760a29af73662d7304c6e533cfa39649002f097e","name":"Kharkovskiy zoopark","opening_hours":{"open_now":false,"weekday_text":[]},"photos":[{"height":730,"html_attributions":["<a href=\"https://maps.google.com/maps/contrib/104253587769969475059/photos\">Харківський зоологічний парк</a>"],"photo_reference":"CmRaAAAAPMQfd217uCJIUGTCLH7R5jQ_Utqw4dqBpvrbhGnsJmGVXWJcvbdwvtx_PIKm7VKr9_Gam65R-Rc5P0DHz1_7LVHTscdHwL9In07YgoIl1SC2NUDVqOkVtz6zyKcQUWetEhBg6Pgd3jy_vW9oqgZkq70mGhQZbTU53TGZp8FRaCcvnp0wKsD8SA","width":729}],"place_id":"ChIJM7zOa-GgJ0ER87F-rNLJWKY","rating":4.3,"reference":"CmRSAAAAqlfra43N1xk3DsAWbsKdXY_wWIxH4y39eI0bfJCgWCvP5Ll0l0nBr98E1WGSQO52xWCUGUYP4_Jq-iolJHRktbMEp2d_YaZnqWpkrfJsxXzNPtp0QNmpDHbITR8x-Tl-EhDddrZmAtRAN77YY1fzzqHbGhRphV9jF12suUuscb1zfJ4UWS0O8w","scope":"GOOGLE","types":["zoo","park","point_of_interest","establishment"],"vicinity":"Sumska Street, 35, Kharkiv"},{"geometry":{"location":{"lat":50.0200085,"lng":36.24532969999999},"viewport":{"northeast":{"lat":50.0213574802915,"lng":36.24667868029149},"southwest":{"lat":50.0186595197085,"lng":36.2439807197085}}},"icon":"https://maps.gstatic.com/mapfiles/place_api/icons/generic_business-71.png","id":"037aa194e8f59d7a6d4ae1a0f40616acb3fd6608","name":"Maxim Gorky Central Park for Culture and Recreation","opening_hours":{"open_now":true,"weekday_text":[]},"photos":[{"height":2418,"html_attributions":["<a href=\"https://maps.google.com/maps/contrib/113259653106432297186/photos\">Igor Nayda</a>"],"photo_reference":"CmRaAAAADHeZ6gJlFke8FyVY10ANxHRBOYurqZ6AfjG9rxATI3QcStw-ywjF_ApItJACpwbX-uYOYJRvjT9R5IOeMbkeE0qPfYILpL7vymbTiFIwhqKF9KAU7jefLMH3eZJnosf7EhD9Coz2y6AgzKmsQujzzG66GhQDm7ak1rivK-GNJ_iOrSXcXStXUQ","width":3291}],"place_id":"ChIJjZ4r7SqhJ0ERKtxxFOp1sBM","rating":4.8,"reference":"CmRRAAAALIl4WOxLJYTCbZ1eujw7uZ2-TpN5aEp5jUKMeSs6ua1cx-Z0hDmTanyPQr4LtOgSGeE_L-25gnVluiDbXHpF70Rg0p5dJT2PDVr-sBs-cB8kwYUba53akHNM9vohq2JoEhBaKFrHd0NpbFUek4ENfj79GhSOo1MYakAv9eCtfEWzGWbrverkVQ","scope":"GOOGLE","types":["amusement_park","park","point_of_interest","establishment"],"vicinity":"вул. Сумська, 81, Kharkiv"},{"geometry":{"location":{"lat":49.987312,"lng":36.233245},"viewport":{"northeast":{"lat":49.9885582302915,"lng":36.2346721802915},"southwest":{"lat":49.9858602697085,"lng":36.2319742197085}}},"icon":"https://maps.gstatic.com/mapfiles/place_api/icons/camping-71.png","id":"86ab955c6a2d528237bc28933bea3d8d4895c472","name":"Magic Camp","place_id":"ChIJbTdlA_SgJ0ERUlpP9_8gWok","rating":5,"reference":"CmRSAAAAZBZzEn-pjB_aNxl_4SHxtlQpqLBho3Rm8A8BPF8gmhdpyHNnnOXLG2SQqBPf5SQOczUEnE01u4fYblaLxPIm1HUO9XIIfjkx39wNRo9Pdh__eM80HnW42cZ4kFUUp_nSEhBGYsZG6S0Ulb_zSI9XyWH-GhRMiQXgItggH3C-SncwCFfexo0bxw","scope":"GOOGLE","types":["campground","park","lodging","point_of_interest","establishment"],"vicinity":"Kooperatyvna Street, 7, Kharkiv"},{"geometry":{"location":{"lat":50.0562222,"lng":36.2692003},"viewport":{"northeast":{"lat":50.0576528802915,"lng":36.2709597802915},"southwest":{"lat":50.05495491970851,"lng":36.2682618197085}}},"icon":"https://maps.gstatic.com/mapfiles/place_api/icons/restaurant-71.png","id":"b5fd1b7aac067ca1ede8e0ee402f462e74aeb722","name":"Panske selo","opening_hours":{"open_now":false,"weekday_text":[]},"photos":[{"height":2432,"html_attributions":["<a href=\"https://maps.google.com/maps/contrib/107582294903239533098/photos\">Игорь Вацек</a>"],"photo_reference":"CmRaAAAAy9OGLXBGCUpTuUzyibqxFDup9CJzF7eHucHuPsK26JjchKSP-FFCGhUH8mo3w7OrWvrvZfCTkBQ4QQRvrR6L6vJIKVSL-BdGNcCe4SmQ7y10MyPOgS9QOGecxSeQDqWMEhCt4csNJjNB5xlApzDbOq9DGhTANsIaXX6AHpexl4VelyjsQCubNA","width":4320}],"place_id":"ChIJQ5Jw2_OmJ0ER62Ccsda_w_A","rating":4.7,"reference":"CmRSAAAAUjtjd8KmqdlIfmGKaU6rx1yRA-SfskykcPw53lSn0wGxXaeR0xdI3gev4YBgw4paERjv65LN7RqURficAOkKaNVl0jLcfC9gXts_PyxywrHtukDr6jKIQdx2xrRGOphNEhCtPwroQG-Ux6l68zb0TAk9GhQcs2WgvNAFFCgzsY7VSrd8K6E3aw","scope":"GOOGLE","types":["restaurant","amusement_park","cafe","park","bar","spa","health","food","point_of_interest","establishment"],"vicinity":"Bilhorodske Highway, 7, Kharkiv"},{"geometry":{"location":{"lat":50.031053,"lng":36.34236500000001},"viewport":{"northeast":{"lat":50.03222483029149,"lng":36.3435608802915},"southwest":{"lat":50.02952686970849,"lng":36.3408629197085}}},"icon":"https://maps.gstatic.com/mapfiles/place_api/icons/shopping-71.png","id":"9647d570b5db6b7e435f1953f7ee1c1e8648ff79","name":"Torgovo-ofisnyy tsentr \"KONTINENT\"","opening_hours":{"open_now":true,"weekday_text":[]},"photos":[{"height":766,"html_attributions":["<a href=\"https://maps.google.com/maps/contrib/105532069805908289945/photos\">Торгово-офисный центр &quot;КОНТИНЕНТ&quot;</a>"],"photo_reference":"CmRaAAAAkqaFD_9NEBHjokWwkkGYJ3Q9e2RmmVajuMmKCBVGhz7QiOfU-zDOERAawJ6Fs2K7Cu9ZKC2MdYSzRv3tMtfUxVtnaKUVYWoevX1yKt2ZdW48yw7bOfERDyJ_C22LF6O9EhBeCSj-9ObYgSEEHm40n2s-GhQuTxy1rSdfp6kTQywlBGcLpW7i8Q","width":766}],"place_id":"ChIJwVOzLfigJ0ERf0_FBG3Qzug","rating":4.3,"reference":"CmRSAAAAvEuOyzZsFrT4qYUIORMwVzDkndpSYmObNR1oqkHvUNhCv_WrQPjObPyggGyJAfVNHa8D__p2_SyXaBlPqkngAyd-g-dyR8Js2BRfnwfJ3U0p3dos86D5fUejyNuPf4S3EhDzM2XmZG8RwnYL2M88LEi4GhTGtzdjI_5q0WgwGO1kHCNudbDTlw","scope":"GOOGLE","types":["shopping_mall","park","point_of_interest","establishment"],"vicinity":"Kontinent, Buchmy Street, Kharkiv"},{"geometry":{"location":{"lat":50.0376069,"lng":36.1850998},"viewport":{"northeast":{"lat":50.0389558802915,"lng":36.18644878029149},"southwest":{"lat":50.0362579197085,"lng":36.18375081970849}}},"icon":"https://maps.gstatic.com/mapfiles/place_api/icons/generic_recreational-71.png","id":"1bea41a7c8ec8b92d7c43f1c9cabc48d53e6e79f","name":"Lugopark","opening_hours":{"open_now":true,"weekday_text":[]},"photos":[{"height":2976,"html_attributions":["<a href=\"https://maps.google.com/maps/contrib/116474476837384091121/photos\">Yevheniy Pashkov</a>"],"photo_reference":"CmRaAAAAm_FdoJb8zT9LKnzaBxYTMEknekS4z0uO96IgU_ZB0DBPKGv96VM5FqAjip-RR96uJ-YPKo5CCTpU_aKICO9iEem62HpaTjcXTjN36b9fwLligq12c0HH1rGaiMEznMJ0EhCfUGqJyY7S5PbiecomuGovGhSgxcBWJmWOZA6uZYSImSHsQ8QCpA","width":3968}],"place_id":"ChIJxyEG1lehJ0ERUoSTfG_ooF0","rating":4.1,"reference":"CmRRAAAAimoYDc3Mw9zLwE0kpfG4IVNwYB6zPYotMOIYy6vx6lUMji8TapzCmgcAHlKf_nLm9j0BkmX49bIpE3QBMqmxOa15Ye_6jfkWayMvl8NZhlSThN0GoAxeQ-I5V9UtJ_A9EhApzGJAV_sqa0RaMIfNKrjiGhR9g3XdBOw58Ng-_chu7Thz-8VTHg","scope":"GOOGLE","types":["park","point_of_interest","establishment"],"vicinity":"Kharkiv"},{"geometry":{"location":{"lat":49.987312,"lng":36.233245},"viewport":{"northeast":{"lat":49.9885582302915,"lng":36.2346721802915},"southwest":{"lat":49.9858602697085,"lng":36.2319742197085}}},"icon":"https://maps.gstatic.com/mapfiles/place_api/icons/camping-71.png","id":"5f409cd9f49629538addefb9c7c81ac59c9109e8","name":"Umníc","place_id":"ChIJbTdlA_SgJ0ER54u9mZ4Hu0k","reference":"CmRRAAAAxiIGPemg2lTec7_ONIVlP5CEL66ivK6gOxiviNzbgf592ZTrxmaJyYLxh81qpOlamKsBXhrqua6dHF4RXeXnli1kDz-FeGpz-nkRGk9tW0Qb1exOHgtGgTPxd52JaqQjEhBplDiV1ev8SXbU0saMxOsgGhQ5Bq9_TIuTTCw4xhoVc0gGrbTFVA","scope":"GOOGLE","types":["campground","park","lodging","point_of_interest","establishment"],"vicinity":"Kooperatyvna Street, 7, Kharkiv"},{"geometry":{"location":{"lat":50.003625,"lng":36.2942079},"viewport":{"northeast":{"lat":50.0049464302915,"lng":36.2957699802915},"southwest":{"lat":50.0022484697085,"lng":36.2930720197085}}},"icon":"https://maps.gstatic.com/mapfiles/place_api/icons/shopping-71.png","id":"5dddcabd65a66003415a9e061baabcc1d5b60880","name":"TOV \"O.P.K. Kompani\"","opening_hours":{"open_now":false,"weekday_text":[]},"photos":[{"height":333,"html_attributions":["<a href=\"https://maps.google.com/maps/contrib/103035667638263514321/photos\">ТОВ &quot;О.П.К. Компанi&quot;</a>"],"photo_reference":"CmRaAAAAWkqxMPj7lzxAarL1YPv8E4hw79nenabMqNUgIXwpi5Yv5WiCbz--vsWy18SYo2CfTtPombGA4WwfVhabjgsxzNlih6EC1vz0xog_RKdnZ3J_fxR2B4-ViEuQsP7t7LVKEhBU3dW29nctwMQmSGLmveE3GhQoVs0VW2Kww_ODlt-voL4IrihPCA","width":592}],"place_id":"ChIJ-TZzdNgJJ0ERZyvFgHdtRYY","rating":5,"reference":"CmRSAAAA7xhMAOfHA1noQraFL2l5O4RYFjfbn34UkLvZj_8nkdLXcBPlZBxi162EqfqGq3yToOleVCOle8V1AiTSL9HXVWyNYX7vyinS6CPHx4vKLQT8EBgRzvERcGrvJUerDdZhEhDH-IVaDzGPwwt_c_c1flNPGhS5vacjQy74hegdhNJU8-gIS2DTew","scope":"GOOGLE","types":["hardware_store","park","store","point_of_interest","establishment"],"vicinity":"61000, Rajevskoj Street, 23, Kharkiv"},{"geometry":{"location":{"lat":50.00338099999999,"lng":36.29548},"viewport":{"northeast":{"lat":50.00472998029149,"lng":36.29682898029149},"southwest":{"lat":50.00203201970849,"lng":36.29413101970849}}},"icon":"https://maps.gstatic.com/mapfiles/place_api/icons/generic_business-71.png","id":"ec439c1ba424e8576711011744495520399d8720","name":"Presto-PS - kapelnyy poliv","opening_hours":{"open_now":false,"weekday_text":[]},"photos":[{"height":608,"html_attributions":["<a href=\"https://maps.google.com/maps/contrib/109469940495949590889/photos\">Presto-PS - капельный полив</a>"],"photo_reference":"CmRaAAAANpOP3YZREu1uM0N79VeSQm24P7aoQQIVLJZXwoh9Qqsxxank7EyXrdUYTaJc70_aDMOuQoqrZexjjXTuSa2-gXrEiw5CF1K9_z-z2KuH58JVG9iK6beOTyB71o1epbt7EhA0q0ieYjaMZ4Z7UChjnKtjGhTRbAZerJR_5mzmQLGabqw-1OW6Og","width":1080}],"place_id":"ChIJExZMVqygJ0ERJEoMfb0DPzc","reference":"CmRRAAAARqum1qeYdUsMQ0nfc874LZHKT1BEWwU5-yF4QMVLXsk2QzSxWzdCPPw6ZWLmYip41CJMnMGPHIBVWyAMzXx7k4bOPu3WWsERrBFuFVKPEWloP7TXgSpCpeVgv8NI5zkuEhCevObIBXTrqY_BBATXGV8iGhShbYTbiHhhVT52Xsw6KWmSNVXbvA","scope":"GOOGLE","types":["park","store","point_of_interest","establishment"],"vicinity":"ул. Елены Стасовой 18, Харьков"},{"geometry":{"location":{"lat":49.8951049,"lng":36.4530241},"viewport":{"northeast":{"lat":49.8964538802915,"lng":36.4543730802915},"southwest":{"lat":49.8937559197085,"lng":36.4516751197085}}},"icon":"https://maps.gstatic.com/mapfiles/place_api/icons/generic_recreational-71.png","id":"c1ce66999765911d814e7fed17d29691e4b04ba1","name":"Kharkiv Arboretum","opening_hours":{"open_now":true,"weekday_text":[]},"photos":[{"height":3120,"html_attributions":["<a href=\"https://maps.google.com/maps/contrib/111765992010884138864/photos\">Слава Волошин</a>"],"photo_reference":"CmRaAAAAmUIB7ZpsjEx2g5MosOchQiDL6WnUAGBvPAZczuDQBjlYlDHUdmGkT2OC0EiHUwG__eYnvxp98J2QQzqlWGag5MFI0tLMqv20aRtTb_pC7K8QBw4q5gP6fnqu-NxhIhvjEhB800uiRoxmUHinYM82F-HTGhT-GRg3pGO1tnLU3wMo485GHfZdBg","width":4160}],"place_id":"ChIJUzbmswwNJ0ER_sY4UgK6L9A","rating":4.7,"reference":"CmRSAAAAEeWVlKqk-cpwAY644XIf4TJVL6tv7bYMPkZ2__kVrtzWmfh5Vo2e_8r6dYAoc9olyELHrIK2hu-x67a_kCFnR5vraU_vSTeR50H8W1DEvYqa0UFKrI1LpNWhCMO37NjlEhCBe8ch9orrLm0ciWBjeZp1GhTjckMW7DDo39I8FdmJ9jJsFkPKQg","scope":"GOOGLE","types":["park","point_of_interest","establishment"],"vicinity":"Komunist"},{"geometry":{"location":{"lat":49.9675717,"lng":36.2927494},"viewport":{"northeast":{"lat":49.9689206802915,"lng":36.29409838029149},"southwest":{"lat":49.9662227197085,"lng":36.29140041970849}}},"icon":"https://maps.gstatic.com/mapfiles/place_api/icons/generic_recreational-71.png","id":"c1a07040e3e94008c957bc293dfcc42fa020feaa","name":"Mashynobudivnykiv Park","opening_hours":{"open_now":true,"weekday_text":[]},"photos":[{"height":1200,"html_attributions":["<a href=\"https://maps.google.com/maps/contrib/103999212235481706288/photos\">Александр Николаевич</a>"],"photo_reference":"CmRaAAAAShNivPlUA-JB2g3MD3wH8kSehQAa5Ewv2SmXIX3W3A8GrsHQkmjzkHQsAOoQ_lmVBDlcSQPeRndMZwoULWrrybKhxd4_MWwyQCRoGUmaW6vpRaCE2X8R1l5h_HynR3sZEhBmV_mGCfdiXtMK0cAqUB8MGhTu-HT7EPEPU0eLQPiCzIoj2os0ww","width":1600}],"place_id":"ChIJN1LVeGYKJ0ER1r98CLCdonM","rating":3.7,"reference":"CmRRAAAAE5OgGBYbFMTZeNdN4tX6hGDZidGwD-WLK_d7JDt1TLNSYNp8yJYhNTD_DvsP9S1FRqCiBK4tJPGS6qD6AbOYixTyzY2BHfbH_bgEHK2F6JhsD-v_Q9HiZWRsZQRcCk66EhBkZalRdQUC6fCvYN01-Bw8GhQzMBAcRv1LU3i5DxaVA6_v2tSrew","scope":"GOOGLE","types":["park","point_of_interest","establishment"],"vicinity":"Plekhanivs'ka Street, Kharkiv"},{"geometry":{"location":{"lat":50.02672159999999,"lng":36.23151169999999},"viewport":{"northeast":{"lat":50.0280705802915,"lng":36.23286068029149},"southwest":{"lat":50.0253726197085,"lng":36.2301627197085}}},"icon":"https://maps.gstatic.com/mapfiles/place_api/icons/generic_recreational-71.png","id":"81bb81db1786b397e77533bd90ce6ee2c4d15a91","name":"Sarzhin Yar","opening_hours":{"open_now":true,"weekday_text":[]},"photos":[{"height":2448,"html_attributions":["<a href=\"https://maps.google.com/maps/contrib/114334329606071534779/photos\">Сергей Щербаков</a>"],"photo_reference":"CmRaAAAA_RuR-ye7qkvQPILyluJZiCEIeITGMlDGutF2EMpjwQ1ZizrTaVdu-_zlHu_DBBBc6PlM56PTDulMZv7M0r3ycPxbjoK6cJGQ6kK0U8JTO15XdadP6izeDldbtjW_FqF4EhAdZ9ACVhwdeVJBOL42WUI5GhTDHdIcLEHndQ20z5RwTlLokfDgHw","width":3264}],"place_id":"ChIJG6mPQs2mJ0ERvltEHdjq7sE","rating":4.8,"reference":"CmRSAAAAnklfpoFdEb4D9IGomZGhxX_00cwt2skRJ542qMdnlSr912n4Jum1GDw2PBh_yDzSOdX5YeRu6ptvOC8-R0DqBYhu80fZgscO2UCQFIun70J0QZsNE3aIKRq9O5EjOcOREhDPkc-uHYS1PTLy-oJta4gBGhRhefC70wCxBLGYnLsvbqC4TwXCvQ","scope":"GOOGLE","types":["park","point_of_interest","establishment"],"vicinity":"Kharkiv"},{"geometry":{"location":{"lat":49.9998878,"lng":36.2247368},"viewport":{"northeast":{"lat":50.00092323029151,"lng":36.22578103029149},"southwest":{"lat":49.99822526970851,"lng":36.2230830697085}}},"icon":"https://maps.gstatic.com/mapfiles/place_api/icons/generic_recreational-71.png","id":"523b7ed0f672f0239a1c0ed3446fb8b93c2e02ef","name":"Botanical garden","opening_hours":{"open_now":false,"weekday_text":[]},"photos":[{"height":1520,"html_attributions":["<a href=\"https://maps.google.com/maps/contrib/105050871025124141699/photos\">Слава Василенко</a>"],"photo_reference":"CmRaAAAArUWuMK00ZBFcfivxJjLAENrNm9WlPo6B0jHMjY8G63PAeOXd2vlj6X69QIYcm4NREiyhqbJdNfFgMvnzJaKv4cSgiBBry9bvu20hdX0_n-J4De6LWAR1tTr51vlq9ZqyEhACzD5eZF85NI2fGsynPsVqGhTCEwaG_qAOE9LtQyE9pfHjyGn79Q","width":2688}],"place_id":"ChIJBfx_peOgJ0ERSpYCrntyJMg","rating":4.5,"reference":"CmRSAAAAgGa24ecz4QlDg31Aiugo8PBVk1VTPZBAHWtA3yKCmFAgCUIW_hjBoWbzSjmWgGaz8Ys_YFH-hgk_w_r4EEGWHE1HLU4DiPyUd7xFe8W9rZ-FbpPB6tAWS14lQoseroB9EhDdkF3vEJeEnsU21O2FWGt-GhTJRxDLT5hV0XHRX_Zb7E0PpakrCA","scope":"GOOGLE","types":["park","point_of_interest","establishment"],"vicinity":"Klochkivska Street, 52, Kharkiv"},{"geometry":{"location":{"lat":49.9858869,"lng":36.2259096},"viewport":{"northeast":{"lat":49.9872358802915,"lng":36.2272585802915},"southwest":{"lat":49.9845379197085,"lng":36.2245606197085}}},"icon":"https://maps.gstatic.com/mapfiles/place_api/icons/generic_recreational-71.png","id":"814a8d88ab9dfe199d07cc425a83810403161a85","name":"Skver \"Strelka\"","photos":[{"height":5248,"html_attributions":["<a href=\"https://maps.google.com/maps/contrib/103633859166406603346/photos\">Юрий Третьяков</a>"],"photo_reference":"CmRaAAAAIaCZAVHCKBVSD46NqFAxIdqtiEXLm_Yqo2l3cyfQILwJ3PJV9WQr-GWv-CuaF-FKtOf7t9kymJ9mmlQ2fhaK91W_cCr44U9BpMVBnv1KJzppoiPeabUwVvHU1TWOkBsXEhDADuFk4prZZtDNYjoRMEXNGhRIAAf9JEAQ9Or8uzx85Vmux3VeXA","width":3936}],"place_id":"ChIJ__9rJvagJ0ERWxavb16ToF4","reference":"CmRRAAAAwy5IJ6yOUgsDCgov-rj6pZJAiJ0zp6xBRq3xU4CvmdKvBgU0I_wAiP_kDupTqzCk8C_HttRHgJttIqPJ9u3XD8Ntv-wW62S5tLOX5kFB6xw8Xs8KuFp5s9UeSV35C1t5EhAOdC5mxbYig2EOEpMASRSbGhQbeSoAirNK2UzDra-bbjTKA83lLQ","scope":"GOOGLE","types":["park","point_of_interest","establishment"],"vicinity":"р., Kharkiv"},{"geometry":{"location":{"lat":50.00103010000001,"lng":36.2247032},"viewport":{"northeast":{"lat":50.0020859802915,"lng":36.2257889802915},"southwest":{"lat":49.9993880197085,"lng":36.2230910197085}}},"icon":"https://maps.gstatic.com/mapfiles/place_api/icons/generic_recreational-71.png","id":"566722132a9c5db7d22337517dc619dc5989fb89","name":"Sad imeni T.G.ShEVChENKO","photos":[{"height":4128,"html_attributions":["<a href=\"https://maps.google.com/maps/contrib/109276079978629490051/photos\">Оксана Бусловская</a>"],"photo_reference":"CmRaAAAAk-OAV0uqapgG8I7zKTGo6of9CyWVQyWyOqmrHZJmphFW2Mc-lgtMeHSwDWN9WYngSWKpcvNHcjAiPt4WCR2_Vusa_NDxYH6_ntVQJm_n_hAQW23aJ1CViTqNMuG0JkxIEhCxM38YnxIvZjSeiuTBcNtCGhRjkbG6qxKRXZynXd-RWQKjzDeiZA","width":2322}],"place_id":"ChIJ2QnUN-KgJ0ERCAtoLAP9vNc","rating":4,"reference":"CmRSAAAA7WX7z2ds5i8EjpMcrp9NYwXjvlX4zTtL1V-yPonUF2gMuvbm78JrdyKzauhLxwWmZYu1rjoJ4yHXrYreUnzSv8kDvk0Uq2XRfIBh9WJTprDcsN06wd4hVJdIHEtnKN7NEhA965uOY7IPBNwhJa8VY1LOGhThN6xeiXEZIL2f6nd9hB_YcGnQ-g","scope":"GOOGLE","types":["park","point_of_interest","establishment"],"vicinity":"Kutova Street, 16, Kharkiv"},{"geometry":{"location":{"lat":50.0033774,"lng":36.2305092},"viewport":{"northeast":{"lat":50.0053089302915,"lng":36.2320452802915},"southwest":{"lat":50.0026109697085,"lng":36.2293473197085}}},"icon":"https://maps.gstatic.com/mapfiles/place_api/icons/generic_recreational-71.png","id":"520ff5c33fd88fb59fc5fcc5a8a49e9c61ea52a3","name":"Shevchenko","opening_hours":{"open_now":true,"weekday_text":[]},"photos":[{"height":1350,"html_attributions":["<a href=\"https://maps.google.com/maps/contrib/102253621947703299967/photos\">Юлия Ксенофонтова</a>"],"photo_reference":"CmRaAAAAeg74sEH7Nq_p3NM4imwY03Z2ga21Ql2QlkOd5QzzcM2D3XyO1w6tCuojcxVZdfCgIR7h7Wx5EvAVKMlrSXslk4tAjHuidBcQd2HhfVF-3XzRAqV_TxszqObiEsxCHfzuEhB7wRKHxT_gg-X1QL2-NslNGhSI-053W3d9vnn2X2SLBZsRvn5QyQ","width":1080}],"place_id":"ChIJufZa_eCgJ0ERHeTIrlQJuH0","rating":4.6,"reference":"CmRRAAAAYnCojjLUGYNb26ZK_68XWSPYc2CnIx9XGd6singkVKpsUWpSqCxJLMdlHd1P2wQSFtvmGbu661Qhydk6nHPhd_3PbvycoJzXi223SgwwAJLvZhi-8m3n-2l6yJ90cB5VEhAmHR-5JGKuFO6ABfXHxhPmGhTUvvLGAFfeTAwHLlaCUJ6V0T-RmA","scope":"GOOGLE","types":["park","point_of_interest","establishment"],"vicinity":"Svobody Square, 7, Kharkiv"},{"geometry":{"location":{"lat":50.0079912,"lng":36.2473008},"viewport":{"northeast":{"lat":50.00946683029149,"lng":36.2480191302915},"southwest":{"lat":50.0067688697085,"lng":36.2453211697085}}},"icon":"https://maps.gstatic.com/mapfiles/place_api/icons/generic_recreational-71.png","id":"913acaddd58c6e4ba81f3b4d40555ee82ee59cf5","name":"Могила Петра Гулак-Артемовського","opening_hours":{"open_now":true,"weekday_text":[]},"photos":[{"height":3120,"html_attributions":["<a href=\"https://maps.google.com/maps/contrib/102912239186995246650/photos\">Андрей Власов</a>"],"photo_reference":"CmRaAAAAWSoAckqth37KkyVGp5FGu66Axhf6qjluLEqQQc3HLrwIf-WysfRELqmmNaWtP9tiIPgMXlusrmDnqKpTbWVaIbwsmENL5KicInbsSL2WhxRBXo3tt1SnG8MGH_0UxnLLEhApboHjduN9IlJIm5tR9a_GGhSdpFkdKoaHD3d4flEb_C7zeshZ5g","width":4160}],"place_id":"ChIJSYyACdugJ0ERiVQpUhqHFS4","rating":5,"reference":"CmRRAAAAg46kmT5PbflneeANoNMnnmM4HTQUqVidu5pvJB5lMrSs1ADQ2Nun4jaVV0-LKYlyOjGGLE7nizFN1-u7HbvH6z9QiNB1TdcK4_TQqT8k1PUF3unsFWnMAT2jHAU_RvVLEhDQO2V9uv07b0ZsNRchxACFGhRukY31s3kySUtNgB62HHqJ_VR4Yg","scope":"GOOGLE","types":["park","point_of_interest","establishment"],"vicinity":"Alchevskyh Street, 50А, Kharkiv"},{"geometry":{"location":{"lat":50.0084385,"lng":36.24843},"viewport":{"northeast":{"lat":50.0099975302915,"lng":36.249476},"southwest":{"lat":50.0072995697085,"lng":36.24529200000001}}},"icon":"https://maps.gstatic.com/mapfiles/place_api/icons/generic_recreational-71.png","id":"d196e99f632fe99f9396465124132853380ee49c","name":"Пам'ятний знак Миколі Хвильовому","opening_hours":{"open_now":true,"weekday_text":[]},"photos":[{"height":4160,"html_attributions":["<a href=\"https://maps.google.com/maps/contrib/103561327643638063223/photos\">Вова Капуза</a>"],"photo_reference":"CmRaAAAAcBCJOjWDY9naYBn3lqaRwyLiScqpORkwwO98D_OfL9QqcjHQi2K_X6IeUPP0w3OdT1qyFF2PHCu74VaDc94AMPf6bMOVn3SsK9x4TWHPEOk6r9CefM2IeEztg6l_QWMLEhBwDitRGEstxSfmwBsRfvKxGhTGkX1tS80rNfzRmPQ5H3S3uodUEw","width":3120}],"place_id":"ChIJr-zEA9ugJ0ERtaDGTz7I00U","rating":4.8,"reference":"CmRRAAAAULFnqoBv8an3iN8XMgDOAjHC_mLhK4i0dXhAz3suAqUeM3xCClUuDT3BJy2iahb3PXTNDNu2O9LP8OJOOi8aSuMR3qFoJIZENLFer_BZ5PRnMsBOrx4z95HIh6EBJUGcEhDuwJdDsp1wi3PjNXET2aXmGhQpWAhOulHWGcBUCLB1JGAez-lBlw","scope":"GOOGLE","types":["park","point_of_interest","establishment"],"vicinity":"Alchevskyh Street, 50А, Kharkiv"},{"geometry":{"location":{"lat":50.0083044,"lng":36.2518911},"viewport":{"northeast":{"lat":50.00949353029149,"lng":36.2535627802915},"southwest":{"lat":50.00679556970849,"lng":36.2508648197085}}},"icon":"https://maps.gstatic.com/mapfiles/place_api/icons/generic_recreational-71.png","id":"f8f8898ca20de2cc0b577b7c0b1bb370c0f23b23","name":"Парк \"Молодіжний \"","opening_hours":{"open_now":true,"weekday_text":[]},"photos":[{"height":3120,"html_attributions":["<a href=\"https://maps.google.com/maps/contrib/106234630433481503888/photos\">Alexandra Nabokina</a>"],"photo_reference":"CmRaAAAAzx40s3AUHBtxswY82XiCiWRd-zQa7gEFbzTSUXD4WpWyFPhHVzn-UJZOT03UzZ3o7ru75O6C9H2PJobv2-znk5a9FS15cDyo7GWRgaRdqnXwYDns8RkqSb7ZsKBTTbX9EhDZztNmHt2jMlG-dQdtMvs6GhQOcYPfJ0QTRpRso8eUkgOspuxOtg","width":4160}],"place_id":"ChIJSahNztqgJ0ERQN6KQ0FtVek","rating":3.9,"reference":"CmRSAAAAtffcjLKpP6uZ8qKom-LybGfDoN91YW_U70yMxic0LTxbRKWZJNOVy91Plwf3j14aQwATCxTe37HvK6nIs9D-gAtKHNIXsfa39NG5_ZMNjYzGvM9YJBjS4mMoHs3MYGZIEhCbdJvcj80PaczexEYdQxd0GhSbTPihXLuwhcIeg6LH3x904qLNVQ","scope":"GOOGLE","types":["park","point_of_interest","establishment"],"vicinity":"Pushkins'ka Street, 100, Kharkiv"},{"geometry":{"location":{"lat":50.0199143,"lng":36.2453445},"viewport":{"northeast":{"lat":50.02126328029149,"lng":36.2466934802915},"southwest":{"lat":50.0185653197085,"lng":36.24399551970851}}},"icon":"https://maps.gstatic.com/mapfiles/place_api/icons/generic_recreational-71.png","id":"996a33297714914e82e57b89a9ca97c6b1e83398","name":"Park Gorkogo","opening_hours":{"open_now":true,"weekday_text":[]},"photos":[{"height":2448,"html_attributions":["<a href=\"https://maps.google.com/maps/contrib/115695865204135864749/photos\">Olga R</a>"],"photo_reference":"CmRZAAAAy8OUxxqM4Saz84BTPwffEwtHZAMkiMTR0FOTMXhKFUhWJ2GEmR2HW9bDp7j8ceHmo2RGPfEdTMBskeFBPvk_R4zDbPun8je8EBGsRN-2pW5IkYrjO4fuo9UMbc0u3TxVEhCmrIE823lhhBS3XP5QGrRnGhTHHMpJhQ5GVKt9SOb3E1b59jJsGg","width":3264}],"place_id":"ChIJV3jvQyqhJ0ERHfkG-6U-Tx8","rating":4.8,"reference":"CmRRAAAAkK44nXdFQEr4H5K0THd3azeS_UZc20VNUXohz7uEMB-TWALcH7OgLOQy2PFqmOuYO2eEbb1J7Ywh5YxulUnrW7JijUk1uWcMryaJEATxh_YRkSBWUHG-9--x-LNW5-OmEhAPzX3kPvLcv7KsYicCsPgkGhSmN8AZ7GgukneAhLFbWJH8Jshkxg","scope":"GOOGLE","types":["park","point_of_interest","establishment"],"vicinity":"Horkoho Entrance, Kharkiv"},{"geometry":{"location":{"lat":50.0031652,"lng":36.2248593},"viewport":{"northeast":{"lat":50.00451418029149,"lng":36.2262082802915},"southwest":{"lat":50.0018162197085,"lng":36.2235103197085}}},"icon":"https://maps.gstatic.com/mapfiles/place_api/icons/generic_business-71.png","id":"760a29af73662d7304c6e533cfa39649002f097e","name":"Kharkovskiy zoopark","opening_hours":{"open_now":false,"weekday_text":[]},"photos":[{"height":730,"html_attributions":["<a href=\"https://maps.google.com/maps/contrib/104253587769969475059/photos\">Харківський зоологічний парк</a>"],"photo_reference":"CmRaAAAA4WGSBC3ExGv8c7CmDA3NxzODdxO8AZOfjPPjX21DksfRO2tX79hzhFmtSoiCjVvmuN5IVRfE2KYmtKHiR1mtf7pccfaNpW96I64SNuedRT9cWLe7Wsi-6BRgcBWxm0dtEhCt0MUYXezccpLY6XKax-VlGhTpqQgn7cnO5WKPOmiAriaw1xsq6Q","width":729}],"place_id":"ChIJM7zOa-GgJ0ER87F-rNLJWKY","rating":4.3,"reference":"CmRSAAAA9Ac_8DyxVVXvblSpZuEXsFghkfQagfT4yL2LEhOnpRZMkC6ddtgKxpRRi-gNMkgWtCJBiVpbtuQpPLCGwNCXxfDlKF1C2B3xLY5eXfg2P2p0L6iI_nu5kx5YZGhpTIG3EhCxnuaWVS82sx8MsnOADqsvGhTTvlk-cCizxmlGzYd2tu0hqLoOOQ","scope":"GOOGLE","types":["zoo","park","point_of_interest","establishment"],"vicinity":"Sumska Street, 35, Kharkiv"},{"geometry":{"location":{"lat":50.0200085,"lng":36.24532969999999},"viewport":{"northeast":{"lat":50.0213574802915,"lng":36.24667868029149},"southwest":{"lat":50.0186595197085,"lng":36.2439807197085}}},"icon":"https://maps.gstatic.com/mapfiles/place_api/icons/generic_business-71.png","id":"037aa194e8f59d7a6d4ae1a0f40616acb3fd6608","name":"Maxim Gorky Central Park for Culture and Recreation","opening_hours":{"open_now":true,"weekday_text":[]},"photos":[{"height":2418,"html_attributions":["<a href=\"https://maps.google.com/maps/contrib/113259653106432297186/photos\">Igor Nayda</a>"],"photo_reference":"CmRaAAAA7zSmHbhssXWjpC6VrtWJ0zWkp-dZ2LUVdmpIgYmjqdKxNlFsDk847hsIoTSiKwtbxgOsMtgM0q8qp5LB-AOG2Pbk32_2jiNHoueNf8kFt2ttE8Iif5vlQdNs5nYtmaMIEhDKN5Zb2UGoEJ3l_7meRCuwGhQ35bjMJLmsuxGuUV40ICIdu4R1SQ","width":3291}],"place_id":"ChIJjZ4r7SqhJ0ERKtxxFOp1sBM","rating":4.8,"reference":"CmRRAAAA2FZ_xsg0RbSSiKyzvPAiAlaviTnGzMYOXTdZluArZmCGNTc5uUnJeY2dUuLvxWXXz8dCntk99STkqWrAurb70dzUB8MuNbKmO5xuIgjdMmJW4xja5IKWcnYQZD0aFhKTEhB8CYKsM_Jg1THHjgVyf5uDGhRYLLkdXTOzno7Rq-IgAI9R9craBg","scope":"GOOGLE","types":["amusement_park","park","point_of_interest","establishment"],"vicinity":"вул. Сумська, 81, Kharkiv"},{"geometry":{"location":{"lat":49.987312,"lng":36.233245},"viewport":{"northeast":{"lat":49.9885582302915,"lng":36.2346721802915},"southwest":{"lat":49.9858602697085,"lng":36.2319742197085}}},"icon":"https://maps.gstatic.com/mapfiles/place_api/icons/camping-71.png","id":"86ab955c6a2d528237bc28933bea3d8d4895c472","name":"Magic Camp","place_id":"ChIJbTdlA_SgJ0ERUlpP9_8gWok","rating":5,"reference":"CmRSAAAAmowTSIe5q8rW9ai-0oSB2yqUOzmf4twIBVwM9osY_lbUfWxY6rXfMOwAIQK4Rj4S2uJOQdhXuG4xvBYADZNHxuv5Qlh9S6q0fbGpQpTU_oE2C6E9649q2uHqA0-tk_jhEhCnfgh5q2E2mrQsvOdeDu8oGhS0WiypI9298YkdkpH9TTCL6dV_rA","scope":"GOOGLE","types":["campground","park","lodging","point_of_interest","establishment"],"vicinity":"Kooperatyvna Street, 7, Kharkiv"},{"geometry":{"location":{"lat":50.0562222,"lng":36.2692003},"viewport":{"northeast":{"lat":50.0576528802915,"lng":36.2709597802915},"southwest":{"lat":50.05495491970851,"lng":36.2682618197085}}},"icon":"https://maps.gstatic.com/mapfiles/place_api/icons/restaurant-71.png","id":"b5fd1b7aac067ca1ede8e0ee402f462e74aeb722","name":"Panske selo","opening_hours":{"open_now":false,"weekday_text":[]},"photos":[{"height":2432,"html_attributions":["<a href=\"https://maps.google.com/maps/contrib/107582294903239533098/photos\">Игорь Вацек</a>"],"photo_reference":"CmRaAAAAGEsbzxEdTU2GlhdE1hps81Bqk-stkU-N4DrhFOPCMWXpdDD1JhuPorjmb8O7qRQjN-SO2cVhf9LFp8Ko5wNJZIrhNCr8w3Wc1j1G_RuR5L7AV_wvSzUIyxGE0Mq3Yey-EhD1b1bTnxbIie3RfF59QtHvGhRfRUQXayB52vXhbuFAO92tvSV_IQ","width":4320}],"place_id":"ChIJQ5Jw2_OmJ0ER62Ccsda_w_A","rating":4.7,"reference":"CmRSAAAAHSwJZ-MKp0kwcXn-K06HlImTyubk_y_rcBClpnGLU8xsFm6-KD2cL-FEXRbTN2pyyy3p7M99SC2vsGCOSOlSN5tqBeuBNP5Npojb-EaWJSbwrQyzsXtGp48rcBrEL9ZyEhDWRRyamLRWWbGVzcQQZJ1EGhR6DlrDh8NgFA5pQbR7BQvzi0knOA","scope":"GOOGLE","types":["restaurant","amusement_park","cafe","park","bar","spa","health","food","point_of_interest","establishment"],"vicinity":"Bilhorodske Highway, 7, Kharkiv"},{"geometry":{"location":{"lat":50.031053,"lng":36.34236500000001},"viewport":{"northeast":{"lat":50.03222483029149,"lng":36.3435608802915},"southwest":{"lat":50.02952686970849,"lng":36.3408629197085}}},"icon":"https://maps.gstatic.com/mapfiles/place_api/icons/shopping-71.png","id":"9647d570b5db6b7e435f1953f7ee1c1e8648ff79","name":"Torgovo-ofisnyy tsentr \"KONTINENT\"","opening_hours":{"open_now":true,"weekday_text":[]},"photos":[{"height":766,"html_attributions":["<a href=\"https://maps.google.com/maps/contrib/105532069805908289945/photos\">Торгово-офисный центр &quot;КОНТИНЕНТ&quot;</a>"],"photo_reference":"CmRaAAAAUFUayoi_hoBAhVilZtKJDqKPAzNbzAEvYTfz3SLMwSK6tbC8r4rKJUAcWPZS-b6oH5OIZEp5J6ONyIoikqfiAZ_0vHPEPOeWi5phZMOx9VfZ6G_soZmO5sQ_jyUCItQFEhBIWB45zQ80VOgMBvG0nvmpGhQHlqohzFSxltyWzLKLxI53w2rcqg","width":766}],"place_id":"ChIJwVOzLfigJ0ERf0_FBG3Qzug","rating":4.3,"reference":"CmRSAAAA4HyeLXxV2YlAZFtZc5uv1LG4LZ8nuW65LD_zXMSPc2tbvjqXpx-BcXgq27-lilBx6do9YLH1C46FkYBIdnch1cdn6HzOd8Eso67t4AykRobyFg-yWDhE8dznUdxVy737EhAWjL1ci39tAq0CPVy0T3uyGhTUvjxEjbXp2eCbQ_Frrbt_NUFG8A","scope":"GOOGLE","types":["shopping_mall","park","point_of_interest","establishment"],"vicinity":"Kontinent, Buchmy Street, Kharkiv"},{"geometry":{"location":{"lat":50.0376069,"lng":36.1850998},"viewport":{"northeast":{"lat":50.0389558802915,"lng":36.18644878029149},"southwest":{"lat":50.0362579197085,"lng":36.18375081970849}}},"icon":"https://maps.gstatic.com/mapfiles/place_api/icons/generic_recreational-71.png","id":"1bea41a7c8ec8b92d7c43f1c9cabc48d53e6e79f","name":"Lugopark","opening_hours":{"open_now":true,"weekday_text":[]},"photos":[{"height":2976,"html_attributions":["<a href=\"https://maps.google.com/maps/contrib/116474476837384091121/photos\">Yevheniy Pashkov</a>"],"photo_reference":"CmRaAAAA5bX121eQQyzSMfBTx0N_h7j33ZE4IN-pXMBvVYp8SoHOmH1kWBcbQG_hEEwHYsiFOOjP4QJ2icq1tcxDI7bBw5Vp337pmsjo6B9KRj0M_R_hxM0x_Z8h3P0iqminR08eEhB9Y2EKiXNTsQB9H0EI5oL5GhSSBLyod65Yrx1wkuIyqqUBdHwBnw","width":3968}],"place_id":"ChIJxyEG1lehJ0ERUoSTfG_ooF0","rating":4.1,"reference":"CmRRAAAA5tp2dIZMoio-tTkP7RMjPXRRTKsCEDPWtjXfypY9hB9xW-qf-irfJ2caS66oofnxmtnt8483Z3YhgQQJ4bVkSOORG4zFSn2i3TwC7stqs4OCnOQp0U4Ttufpbg4azA_2EhBtU6l2Ka8TbjsTpZ8viS0TGhT5zmeQg05k4k5oEYSBuJlZXHwW2g","scope":"GOOGLE","types":["park","point_of_interest","establishment"],"vicinity":"Kharkiv"},{"geometry":{"location":{"lat":49.987312,"lng":36.233245},"viewport":{"northeast":{"lat":49.9885582302915,"lng":36.2346721802915},"southwest":{"lat":49.9858602697085,"lng":36.2319742197085}}},"icon":"https://maps.gstatic.com/mapfiles/place_api/icons/camping-71.png","id":"5f409cd9f49629538addefb9c7c81ac59c9109e8","name":"Umníc","place_id":"ChIJbTdlA_SgJ0ER54u9mZ4Hu0k","reference":"CmRRAAAAJvBpQ5meovMbfq0STMqA0jKIVjFqdbX4j5bQtZImjdG8gOYsTO8TDdjakFGIz5rXibLLb6SLxWJYbrhegwkZ1ncEqa_LQFT0Nk4HHtUUIxDerTgcG5ldZ3DTYEMJZhdwEhB-SkAEFjPPpPjak99fNAh2GhQdLDijJb0DJ4jqui4hI8o3p_5XQQ","scope":"GOOGLE","types":["campground","park","lodging","point_of_interest","establishment"],"vicinity":"Kooperatyvna Street, 7, Kharkiv"},{"geometry":{"location":{"lat":50.003625,"lng":36.2942079},"viewport":{"northeast":{"lat":50.0049464302915,"lng":36.2957699802915},"southwest":{"lat":50.0022484697085,"lng":36.2930720197085}}},"icon":"https://maps.gstatic.com/mapfiles/place_api/icons/shopping-71.png","id":"5dddcabd65a66003415a9e061baabcc1d5b60880","name":"TOV \"O.P.K. Kompani\"","opening_hours":{"open_now":false,"weekday_text":[]},"photos":[{"height":333,"html_attributions":["<a href=\"https://maps.google.com/maps/contrib/103035667638263514321/photos\">ТОВ &quot;О.П.К. Компанi&quot;</a>"],"photo_reference":"CmRaAAAArJPgqM92NDEU3YFPjMJSGC2-mjwFm8Qe4XHTCu-TYWxH5dLejw-_pZntE9jWXUO-RaV_Zxpr4sw1qT6Zr4GjRNZlN0U_J_VxmRGEd-UEzjKPbJ1F_QSKB-aBR9y4XL_WEhCnyEndA7kunAkTicXg3ki6GhT9PfNMwKlDC1T9dIilv9MWLJMbhQ","width":592}],"place_id":"ChIJ-TZzdNgJJ0ERZyvFgHdtRYY","rating":5,"reference":"CmRSAAAAg7FpekVANMM9v5WKKnalFZQcrhZ4lEleHiHWaERHrWMyCN6sDYL28OOg7c4ZoCp3wQXdTY0LszkLQKwMica2Db3uMiQocNZh6Z1M1xXvxRkovUEcf8_npuQSe3Cr79GjEhBdEYKiqxODGWl18Cultk2wGhSJGQ-CHGli9smUtu5R4u4lfQdI5g","scope":"GOOGLE","types":["hardware_store","park","store","point_of_interest","establishment"],"vicinity":"61000, Rajevskoj Street, 23, Kharkiv"},{"geometry":{"location":{"lat":50.00338099999999,"lng":36.29548},"viewport":{"northeast":{"lat":50.00472998029149,"lng":36.29682898029149},"southwest":{"lat":50.00203201970849,"lng":36.29413101970849}}},"icon":"https://maps.gstatic.com/mapfiles/place_api/icons/generic_business-71.png","id":"ec439c1ba424e8576711011744495520399d8720","name":"Presto-PS - kapelnyy poliv","opening_hours":{"open_now":false,"weekday_text":[]},"photos":[{"height":608,"html_attributions":["<a href=\"https://maps.google.com/maps/contrib/109469940495949590889/photos\">Presto-PS - капельный полив</a>"],"photo_reference":"CmRaAAAAdZHC8lszEM5INGz_G8ugyWgtHJTrxHYMHLhEj6Pl7O2V5n-WtZwkOJerhEXE6_DImdkkyn9ozsLlesDBRPYt5wQzEc1GKa-VMPm63QHrlgQcHQaDD62VlVGvKFTexeRfEhCxpqzP7UvI02CLar6W3EPIGhQL7JPlrpw0AjeKWqAFP7OFAPaTvQ","width":1080}],"place_id":"ChIJExZMVqygJ0ERJEoMfb0DPzc","reference":"CmRRAAAA54zDs2n-8VTx8nlxHHi6RBWVXk7Dng9B-5xEZvkbosuWC-s6BxD9VwW-x11M5VrsHObnUvGavznPENuof3DN-JYLDbW8hN-mZ19X9PxiwurCWHT6n623vRDlBtcglNPvEhBwxddiuHsksfZEg2oroI-yGhRQBmFX7DMDqz_njjhT1TyWXvm4kQ","scope":"GOOGLE","types":["park","store","point_of_interest","establishment"],"vicinity":"ул. Елены Стасовой 18, Харьков"},{"geometry":{"location":{"lat":49.8951049,"lng":36.4530241},"viewport":{"northeast":{"lat":49.8964538802915,"lng":36.4543730802915},"southwest":{"lat":49.8937559197085,"lng":36.4516751197085}}},"icon":"https://maps.gstatic.com/mapfiles/place_api/icons/generic_recreational-71.png","id":"c1ce66999765911d814e7fed17d29691e4b04ba1","name":"Kharkiv Arboretum","opening_hours":{"open_now":true,"weekday_text":[]},"photos":[{"height":3120,"html_attributions":["<a href=\"https://maps.google.com/maps/contrib/111765992010884138864/photos\">Слава Волошин</a>"],"photo_reference":"CmRaAAAAiKKNCw3rZDp35ZeB6i0l4R2aPnfaT-9W-cPnLhMemEDlG7L6OvNdsAx7is6ZMaeg2GgSQKoIo8FAg3TMY71tXE8mIf6OOcvERxMbzHGZ2dSIU_4FrITTf8TXHTvcFZJPEhAAy_Kb-VeMLeOIScPL2nRQGhRENjqTasrplzUndyDMMSKKzcbD_A","width":4160}],"place_id":"ChIJUzbmswwNJ0ER_sY4UgK6L9A","rating":4.7,"reference":"CmRSAAAA9wvzoGYFcLpWfojt78VVnBapb7c5IVt7NeWCf0Kh3-6p_r4H6bzwt_c-PrUhxQeVXOepQSUcgG1nWu5-mrRuTQl0iLhF3LvMC1LbzsdMfgczJSQcKs7YXYLrn7HwPPBFEhBFglZwLmkIeMAoQ4L-pSzHGhTWEwDNvmmlZJAu4Dne5ywQNMEvAQ","scope":"GOOGLE","types":["park","point_of_interest","establishment"],"vicinity":"Komunist"},{"geometry":{"location":{"lat":49.9675717,"lng":36.2927494},"viewport":{"northeast":{"lat":49.9689206802915,"lng":36.29409838029149},"southwest":{"lat":49.9662227197085,"lng":36.29140041970849}}},"icon":"https://maps.gstatic.com/mapfiles/place_api/icons/generic_recreational-71.png","id":"c1a07040e3e94008c957bc293dfcc42fa020feaa","name":"Mashynobudivnykiv Park","opening_hours":{"open_now":true,"weekday_text":[]},"photos":[{"height":1200,"html_attributions":["<a href=\"https://maps.google.com/maps/contrib/103999212235481706288/photos\">Александр Николаевич</a>"],"photo_reference":"CmRaAAAA6iDqWYWTfbLoda1e27qtYvD6BuNoU4mY8S6_oNm0Xk6I6PXHJDhstkRgwIl7H9nCGym1yTk3dCkA3ifjYap_pimtFsrvw5H7cp0h2_3O9l99b0MLJzj3dj_j8fy6cOhgEhDqYKNDG1RInVm8nsn4UgOYGhSoagXo7yPpByrTPVw2G4P_hq2ZpA","width":1600}],"place_id":"ChIJN1LVeGYKJ0ER1r98CLCdonM","rating":3.7,"reference":"CmRRAAAAG88MlM0EQJyqhKPIoWdhEyZq59sIl8nKaARD-36fSEEr1n1w3b9rhM6F8_aMdPH0CjSE-y1ImXseK3_nM9vDKqX4PJpbuULwPdrL1lHvR9CrXWFva8gHUFGoe703Qj0DEhDIk4D02Hgu4koGWO4yVx30GhTPy0fnpkCgVeGhPUCA-4nwr_Y6kA","scope":"GOOGLE","types":["park","point_of_interest","establishment"],"vicinity":"Plekhanivs'ka Street, Kharkiv"},{"geometry":{"location":{"lat":50.02672159999999,"lng":36.23151169999999},"viewport":{"northeast":{"lat":50.0280705802915,"lng":36.23286068029149},"southwest":{"lat":50.0253726197085,"lng":36.2301627197085}}},"icon":"https://maps.gstatic.com/mapfiles/place_api/icons/generic_recreational-71.png","id":"81bb81db1786b397e77533bd90ce6ee2c4d15a91","name":"Sarzhin Yar","opening_hours":{"open_now":true,"weekday_text":[]},"photos":[{"height":2448,"html_attributions":["<a href=\"https://maps.google.com/maps/contrib/114334329606071534779/photos\">Сергей Щербаков</a>"],"photo_reference":"CmRaAAAAWGOGSEY7fqSETWq6Ji6-Du8Ea8emmbgttxBUzRWGBdcuRCsR9UrgjTKi7WCQ8mnpIdDI8LtyMW0UGPCAZQuF28wfUjiq8KZfslBiwHgNulaiFppvMx9Kv8CNg4QS9pcLEhDB1v40kUHrVtEcgt68XpNYGhRRoMsWaeVHdoplwTcD3lLNzwrgNQ","width":3264}],"place_id":"ChIJG6mPQs2mJ0ERvltEHdjq7sE","rating":4.8,"reference":"CmRSAAAAYnLXre_sJEmw5Pi3bCC6vsF9IqzDdbMVoQpqCkc6wFpP4wiKTwDgSD60vVUoZ1BGwAGR6gy9_KaLEwUxHU56xsj5gUugax74OIJG8e9YiajPNq0tmMjpPAwh0NM4sZweEhBTDBjyF_mg5IDiACKemOCJGhSebejxKUvxM263MJDFcoyiYH-u5Q","scope":"GOOGLE","types":["park","point_of_interest","establishment"],"vicinity":"Kharkiv"},{"geometry":{"location":{"lat":49.9998878,"lng":36.2247368},"viewport":{"northeast":{"lat":50.00092323029151,"lng":36.22578103029149},"southwest":{"lat":49.99822526970851,"lng":36.2230830697085}}},"icon":"https://maps.gstatic.com/mapfiles/place_api/icons/generic_recreational-71.png","id":"523b7ed0f672f0239a1c0ed3446fb8b93c2e02ef","name":"Botanical garden","opening_hours":{"open_now":false,"weekday_text":[]},"photos":[{"height":1520,"html_attributions":["<a href=\"https://maps.google.com/maps/contrib/105050871025124141699/photos\">Слава Василенко</a>"],"photo_reference":"CmRaAAAA5oFJ3fYSidERs0V5O9cCdtYSHIqDezuAVR-cbfaXRkVRNwF9W5j4Glc6cYTWN1cJgalQMVsGRAaovp2gTJbob5F_yBFiIwrc-fde0BV5vH6qInuuzXis5cKPwZ8MDDtHEhA5Rj3AKDPf_ikeFq7vO8RhGhQE22e7l6yrrkUf4CQhDJ7u2c4WmQ","width":2688}],"place_id":"ChIJBfx_peOgJ0ERSpYCrntyJMg","rating":4.5,"reference":"CmRSAAAAzO9m3WQRG4665O__p9dr15BWYt6sQ18kyfQ82W7PvNavfreU6hwrY8mUf841C7Pw2bIxwxLUtukTV0G0qeyWbpdYBP92GY0BRFLqaIAkmdxUXHxubdRxW7r4VuewYdW0EhDaCqjOQXjCd6Ct4N5XW_FhGhRgkEG2X9ccaCh_e2TZGwMLQT2sFQ","scope":"GOOGLE","types":["park","point_of_interest","establishment"],"vicinity":"Klochkivska Street, 52, Kharkiv"},{"geometry":{"location":{"lat":49.9858869,"lng":36.2259096},"viewport":{"northeast":{"lat":49.9872358802915,"lng":36.2272585802915},"southwest":{"lat":49.9845379197085,"lng":36.2245606197085}}},"icon":"https://maps.gstatic.com/mapfiles/place_api/icons/generic_recreational-71.png","id":"814a8d88ab9dfe199d07cc425a83810403161a85","name":"Skver \"Strelka\"","photos":[{"height":5248,"html_attributions":["<a href=\"https://maps.google.com/maps/contrib/103633859166406603346/photos\">Юрий Третьяков</a>"],"photo_reference":"CmRaAAAAofqyO5ze7sqcvvur79NV2sawtKFU_IZGCikTp-oB9zRIGugY6pUc6ef9xRVnma3SvxZBqZeZRmqu4-u_yc92aPexwCa4_vjBIZFMCZV6IRMvQQTE3nR5a-C8NVQ23pyEEhC2gKIfS0DFfmr0hcEKRWlyGhTscNrgRcWV_xzLP7jbxH9Sjb9gzg","width":3936}],"place_id":"ChIJ__9rJvagJ0ERWxavb16ToF4","reference":"CmRRAAAAg8EK7NHBWgi5jBd_iRE8Tq_DQNzEJEWMu0fvSV-SCu2_386QoM6cQ2tb7ZvxVnJLBfo_4i9s-2t8aiUe821aXwLF_ma857ssAlFeDq5iZ1dd7DZ7s25WG-2rfAArOnj6EhDE2-mRT4MasFBWzZnKlcxKGhQ4E87p-EYhzKYydN8AN8i9UyYvag","scope":"GOOGLE","types":["park","point_of_interest","establishment"],"vicinity":"р., Kharkiv"},{"geometry":{"location":{"lat":50.00103010000001,"lng":36.2247032},"viewport":{"northeast":{"lat":50.0020859802915,"lng":36.2257889802915},"southwest":{"lat":49.9993880197085,"lng":36.2230910197085}}},"icon":"https://maps.gstatic.com/mapfiles/place_api/icons/generic_recreational-71.png","id":"566722132a9c5db7d22337517dc619dc5989fb89","name":"Sad imeni T.G.ShEVChENKO","photos":[{"height":4128,"html_attributions":["<a href=\"https://maps.google.com/maps/contrib/109276079978629490051/photos\">Оксана Бусловская</a>"],"photo_reference":"CmRaAAAAj4OXYLXV1hbUPw1DyXAEbPeGVT3G9OLzYXTwmJMLyH7XVSF2Coq9871WYMNjGUCtwcRhzlzqCtxWSSSS8LmGp0dDOocYsWl89SwJ4RTGy6NRATidKY5GiFF7HQvKFjwJEhBoEFsgRfCdt3a3UeGgBkWOGhQ8T-UpRJkJNOSMvWePq7RGqFsp-w","width":2322}],"place_id":"ChIJ2QnUN-KgJ0ERCAtoLAP9vNc","rating":4,"reference":"CmRSAAAAGLiSM1lfkRzMmYBkkHJTa-hHJx8H3nXtRXqD2eRoooh8yi8660-dYg1-WiqI_Jf-s6WzOIKmrK970c4uSSrmxqk8jEgl2tdCwC9KfzbxuglwACuNQZ9gy4KIxMWU28gDEhCJPiIjPm14hHhU5wczucPXGhTIQ52Q2s27SMM-e5Loug8Y1F_Jwg","scope":"GOOGLE","types":["park","point_of_interest","establishment"],"vicinity":"Kutova Street, 16, Kharkiv"},{"geometry":{"location":{"lat":50.0033774,"lng":36.2305092},"viewport":{"northeast":{"lat":50.0053089302915,"lng":36.2320452802915},"southwest":{"lat":50.0026109697085,"lng":36.2293473197085}}},"icon":"https://maps.gstatic.com/mapfiles/place_api/icons/generic_recreational-71.png","id":"520ff5c33fd88fb59fc5fcc5a8a49e9c61ea52a3","name":"Shevchenko","opening_hours":{"open_now":true,"weekday_text":[]},"photos":[{"height":1350,"html_attributions":["<a href=\"https://maps.google.com/maps/contrib/102253621947703299967/photos\">Юлия Ксенофонтова</a>"],"photo_reference":"CmRaAAAAouGgs0sR49sl0bnjbNqDXu75zLhzCezvMREvIrvgME3YsM77AHZh-VWI_SK7tnCPOUgYMmr2oYvVeU2v9x-kC7H_QjOfdo40tFmKXu617AzMp11tbb4rzz5bWFzgaXWfEhDSixkzUP6sqAWKpElAMRDAGhQkuloE7d07AxfvfLOF3SXx0It-qA","width":1080}],"place_id":"ChIJufZa_eCgJ0ERHeTIrlQJuH0","rating":4.6,"reference":"CmRRAAAA5Y2fuuRsrtN4FOuM0W5Fm39YZd_tok6_lu5YQc0S-STlkt9QGj1qDR5TpD6R39QpyJLkg_Nw9MlD8sYhUXqUFcLVcVq-o_2EdbJHodKkC0KXaYalujhk3EWczCPCLuviEhBRk6_TiB7vuveh_nI2fQh3GhQ7-U2_ZDiJbTUJqMewlpqf2W08aw","scope":"GOOGLE","types":["park","point_of_interest","establishment"],"vicinity":"Svobody Square, 7, Kharkiv"},{"geometry":{"location":{"lat":50.0079912,"lng":36.2473008},"viewport":{"northeast":{"lat":50.00946683029149,"lng":36.2480191302915},"southwest":{"lat":50.0067688697085,"lng":36.2453211697085}}},"icon":"https://maps.gstatic.com/mapfiles/place_api/icons/generic_recreational-71.png","id":"913acaddd58c6e4ba81f3b4d40555ee82ee59cf5","name":"Могила Петра Гулак-Артемовського","opening_hours":{"open_now":true,"weekday_text":[]},"photos":[{"height":3120,"html_attributions":["<a href=\"https://maps.google.com/maps/contrib/102912239186995246650/photos\">Андрей Власов</a>"],"photo_reference":"CmRaAAAA5h9n7SQGPacfBxBI_urOTb5aWGvupk-Q7ovp64goLMT4ZfbDV2MgtYgh0cqIiItxB8FuEzlY0OCD-L6TsYN5MdQ-nqJsozf7-0l3DfMR7p1ddEmCCMm2FNT5VmrN1IZSEhCNH00TzDMCqZGiXwi8BvweGhTquAiHLJkwXlXc-JcpLak_BDLt4A","width":4160}],"place_id":"ChIJSYyACdugJ0ERiVQpUhqHFS4","rating":5,"reference":"CmRRAAAA_AhfYtdAR_otHavlyKPDaom3xe_1fRzVt4v9oqgV7xe5uuHCAmosErtUSkQ4uco80-UjQuhOqkd98coYLURSRSfG9wGpf1XZ6fyLEdf3ZvpO-jnFa0LWh1twMAgYKB4oEhAEHs819AlllNyAEQ9BYwgNGhT3EmudHfCila9s2VFLegUliWTlLg","scope":"GOOGLE","types":["park","point_of_interest","establishment"],"vicinity":"Alchevskyh Street, 50А, Kharkiv"},{"geometry":{"location":{"lat":50.0084385,"lng":36.24843},"viewport":{"northeast":{"lat":50.0099975302915,"lng":36.249476},"southwest":{"lat":50.0072995697085,"lng":36.24529200000001}}},"icon":"https://maps.gstatic.com/mapfiles/place_api/icons/generic_recreational-71.png","id":"d196e99f632fe99f9396465124132853380ee49c","name":"Пам'ятний знак Миколі Хвильовому","opening_hours":{"open_now":true,"weekday_text":[]},"photos":[{"height":4160,"html_attributions":["<a href=\"https://maps.google.com/maps/contrib/103561327643638063223/photos\">Вова Капуза</a>"],"photo_reference":"CmRaAAAAKJJXVTM7xoQH6eW6p_QmZb_04s67TbUDRXXb4Kf07-7Xm042GH7AiKgdoOxwrbSa7BRgtueWFpaCxVD186XXTEAYprO8faI7KFUcS6RIY2Pwff68L8ng7SJ6B0AhfweCEhCffHOqThGhXXFhdDiwjHiOGhTeUFaML5dZ_E548dt4_kE1UjQQMw","width":3120}],"place_id":"ChIJr-zEA9ugJ0ERtaDGTz7I00U","rating":4.8,"reference":"CmRRAAAAnPDOVQovwXkHFxyBRq2ifhSmZfO4LAR2on7BBHzJI0Mk04LqXwZqfE3W4ait_0S6EpnGgZ5Z8lbLf659Zs1SjhWfJ8mOJoJGx4GT_xhQrR-OoJszmdczj3cusuCF8tvmEhBLetSC2g5pgHhJ2PsQUf4cGhQt_f5OvCRec5yA0YgfqmteOawabg","scope":"GOOGLE","types":["park","point_of_interest","establishment"],"vicinity":"Alchevskyh Street, 50А, Kharkiv"},{"geometry":{"location":{"lat":50.0083044,"lng":36.2518911},"viewport":{"northeast":{"lat":50.00949353029149,"lng":36.2535627802915},"southwest":{"lat":50.00679556970849,"lng":36.2508648197085}}},"icon":"https://maps.gstatic.com/mapfiles/place_api/icons/generic_recreational-71.png","id":"f8f8898ca20de2cc0b577b7c0b1bb370c0f23b23","name":"Парк \"Молодіжний \"","opening_hours":{"open_now":true,"weekday_text":[]},"photos":[{"height":3120,"html_attributions":["<a href=\"https://maps.google.com/maps/contrib/106234630433481503888/photos\">Alexandra Nabokina</a>"],"photo_reference":"CmRaAAAARQUOewAL3hKR9DaT3jGkspm8cGvLGdx1rFhBnjViLhbka9Nl5vVipJ-RYuC9n9WtdsM_I2kUUgL3oesnDXeUAXkrYVbTqcNbvyEjlXQDBLyIl7iNzjNMEjxlv9dVOh6tEhA7ckgWrTYMfcW5kd4cAbr8GhRk91iAQ9P1z86temIWx_YbzyPUrA","width":4160}],"place_id":"ChIJSahNztqgJ0ERQN6KQ0FtVek","rating":3.9,"reference":"CmRSAAAALwJVpV5f38oywoMNVylZG4uo_Ch3MzNcapV9UesX7mQp5o1ArGxsTaLD3pJop5__jIQqndrX5gFGUoz66cZ_HkFBkHzjO41LgASzyXf-9MIrV-eX8i4feMfX4bliYzNLEhDRhoHSi7w8bXsg74jjKJZMGhT0LtqDKeVlFwD46UsCbUZsrGn1Ow","scope":"GOOGLE","types":["park","point_of_interest","establishment"],"vicinity":"Pushkins'ka Street, 100, Kharkiv"},{"geometry":{"location":{"lat":50.0199143,"lng":36.2453445},"viewport":{"northeast":{"lat":50.02126328029149,"lng":36.2466934802915},"southwest":{"lat":50.0185653197085,"lng":36.24399551970851}}},"icon":"https://maps.gstatic.com/mapfiles/place_api/icons/generic_recreational-71.png","id":"996a33297714914e82e57b89a9ca97c6b1e83398","name":"Park Gorkogo","opening_hours":{"open_now":true,"weekday_text":[]},"photos":[{"height":2448,"html_attributions":["<a href=\"https://maps.google.com/maps/contrib/115695865204135864749/photos\">Olga R</a>"],"photo_reference":"CmRZAAAA7QE7yge12ucmxxKpVGZ2jdZPrvrJHjMheyTNc6OHmJO4DyA6mbvkItifV_nJmlm6EX-9o2bXNFROXSfJXKhpYRLm60VJZsEXA4oDqPNhWMa9MCPbVzEe-LF6_1bKJMi-EhDzDRypP0R_UTd1f10KHL5XGhSEY0KGd4f920SsBT0GTY7KE1bXug","width":3264}],"place_id":"ChIJV3jvQyqhJ0ERHfkG-6U-Tx8","rating":4.8,"reference":"CmRRAAAA1pQXAhab7APiVgm17wSsAAdG69EizHegVnWy3HryvYlCtHQCFgyru39oO21cAg6RpW_GnqlEpO9FAsDeCIwhp9QEj6CaAcxG8DYLQlaMwBFnvBH0jgCZLyt7L72I5DIhEhA71sFXbA8dbXMXHMfBgqdjGhQDmmx9T8z-8BonGkxK5l50GHbwyw","scope":"GOOGLE","types":["park","point_of_interest","establishment"],"vicinity":"Horkoho Entrance, Kharkiv"}]}