{"places":[{"geometry":{"location":{"lat":50.031215,"lng":36.22311999999999},"viewport":{"northeast":{"lat":50.03256398029149,"lng":36.22446898029149},"southwest":{"lat":50.02986601970849,"lng":36.2217710197085}}},"icon":"https://maps.gstatic.com/mapfiles/place_api/icons/shopping-71.png","id":"689bf76dacde0c57c46fccd0d99eb1e1af6dfab8","name":"Ера електроніки","opening_hours":{"open_now":false,"weekday_text":[]},"photos":[{"height":500,"html_attributions":["<a href=\"https://maps.google.com/maps/contrib/112983406343558786744/photos\">Ера електроніки</a>"],"photo_reference":"CmRZAAAAHV0BvQKj_wrs--JId_r8mGjhIUZGtAwjzx3eJpdVWHM_fMABHK9e1RD8mlpvsnNtTndhFb4CSmVPSY4gWfRo4J-fY4dVli2Jj21G3EaPhcPhHHft3Z-2zeEtvsDQ7xcUEhDOTOseBbWDAbHSgT3y5X33GhRAoznGV7XD5otxDQaVfKd_kJa4Ig","width":500}],"place_id":"ChIJgVxiRDWhJ0ERFrjdv04YnMo","rating":4.5,"reference":"CmRSAAAAEuRsux0ZMnRQsZoeGHu6deSM1UrKV4NTHpUa1fSO4d3NbQ_rnyX2BiqMfieUfmI9U6lpOmBzrP5ptoTSh1P30NuQ5rYYnL7vvMqm77c_W-gM5lN30dGZsjJ-itUJ3cBvEhCsLKtpsZo46YB5nHeLf9ahGhTQqI1yLTSr8G6ICdAM7lr1Yaf_WA","scope":"GOOGLE","types":["electronics_store","store","point_of_interest","establishment"],"vicinity":"вул. Тобольська, 42, Kharkiv"},{"geometry":{"location":{"lat":50.0042973,"lng":36.2459685},"viewport":{"northeast":{"lat":50.0056863302915,"lng":36.2473611302915},"southwest":{"lat":50.0029883697085,"lng":36.2446631697085}}},"icon":"https://maps.gstatic.com/mapfiles/place_api/icons/restaurant-71.png","id":"b0c1846877e4b922751f6209718fc91f40f062a5","name":"Paris","opening_hours":{"open_now":false,"weekday_text":[]},"photos":[{"height":3120,"html_attributions":["<a href=\"https://maps.google.com/maps/contrib/114358980158908084943/photos\">Denys Ivanets</a>"],"photo_reference":"CmRaAAAA8LOv-pOY99HctZC8G_DkYtMXo4evVFMnwV5SP4j66PA-AtTwRw8swYKUP6iT3u_-zeKo8cg1X38V10qf4Z8O7MDFqzX1S4cxnah2LU1gWPlu0rTqIz-2_oe9B339eSsmEhBw8zXT2QXRgaQRBuX__OKcGhSizmFpRlBcV-lpaqtw5LLBkZyQvg","width":4160}],"place_id":"ChIJ6UCP2tygJ0ERRJmMWID1zMA","rating":4.6,"reference":"CmRSAAAAzzxFfZW4CvdOyslpVreLbOTbvPozg61KsTV0ViZ8aIbf156kOsADYerRS9TQRPuBbDs1HNpuhZRzzicCaSJMIA_BfkYiRhP7r-JFh1HHA80XUt7HMudh102AAV_oaBhdEhAserB7ARAbbxbAYXUweMLHGhQ-gK4rYfI2HNkfVswhlCMzMApuZA","scope":"GOOGLE","types":["bakery","restaurant","food","store","point_of_interest","establishment"],"vicinity":"Yaroslava Mudrogo Street, 30, Kharkiv"},{"geometry":{"location":{"lat":50.03402999999999,"lng":36.220293},"viewport":{"northeast":{"lat":50.03541038029149,"lng":36.22185833029149},"southwest":{"lat":50.0327124197085,"lng":36.2191603697085}}},"icon":"https://maps.gstatic.com/mapfiles/place_api/icons/shopping-71.png","id":"bc21fc698fff802b7b9e83483d2e119d63d3757b","name":"Eroticland Kharkov - Intim magazin","opening_hours":{"open_now":false,"weekday_text":[]},"photos":[{"height":845,"html_attributions":["<a href=\"https://maps.google.com/maps/contrib/103601456374219458790/photos\">Eroticland Харьков - Интим магазин</a>"],"photo_reference":"CmRaAAAASkPUWbIwQvLoU02QMo9gUWdy6iDo1J05fOc1P_D8B930ZOG-HIcpoBmBYOFBy1oWN3hGS1OI-c0LTK4w4UtaiXG3IutyYjIq66ANfVJW1lRdqJIz2XtpkjAalJ3s5RNCEhAat_BSNiyBVfEegoS3nBqBGhQrtREhYQBAcmVJh-42Vj3LEOPATA","width":1490}],"place_id":"ChIJ6U0ntzWhJ0ERt8OfdZhZYDY","rating":4.9,"reference":"CmRRAAAAN34j3WczjHnO7prvDuMADEtYBdWF5DT0-ku_JU25EXjxfC1ctor6ICnN31OChjyBKT0ENj-cPH2wwn_6z3t2JUVQXET79sD5tcxtUlB07_Qpz-Lnoi6nvemYu6l0iSuvEhDR6pRKv366EP4tnpqToCs6GhQQxlE6x5-B1-FYW82pUiPf6dbszg","scope":"GOOGLE","types":["store","point_of_interest","establishment"],"vicinity":"Nauky Avenue, 41/43, Kharkiv"},{"geometry":{"location":{"lat":50.06811039999999,"lng":36.1995113},"viewport":{"northeast":{"lat":50.06945938029149,"lng":36.20086028029151},"southwest":{"lat":50.0667614197085,"lng":36.19816231970851}}},"icon":"https://maps.gstatic.com/mapfiles/place_api/icons/shopping-71.png","id":"bb21d9f7a57eaf97985f3b3fbc2753471d8cd8fd","name":"Epicentr K","opening_hours":{"open_now":false,"weekday_text":[]},"photos":[{"height":3024,"html_attributions":["<a href=\"https://maps.google.com/maps/contrib/103457139663972919324/photos\">Vadim Avramishin</a>"],"photo_reference":"CmRaAAAAhquyWODN4t-htu3miy8UuzCS1ebFMeFpblMpogTCNimh8Vs5p5HFfrWdGkQh7iKB7NMSO5P7u9oGGrVsXAAEkCa57dqwGXS100ro8evxWsbknRSkEhV-P9BnATCTyxlNEhBmLLXhdcLaZPcB3Top219tGhTjCE-xnLuPHrdawjwbgEfKmkL42A","width":4032}],"place_id":"ChIJc_5zLxakJ0ERnkUopaJbpgk","rating":4.2,"reference":"CmRRAAAAh6FObnhqFPD6hEYnkxM6yBmB1HyXvGe2uNDeJh9le1D8aKoRm9YVfImVBixYVRlFIV4LniLVEvJ7HQ7lG7X34zzvBuDXQyq5ZcPnObYHpfucJoXUZdQTXOSq2I5aQlgiEhC7ZN5_MsSYfPqUSsBqXZGZGhSQwHsnvGfzWkE9Z4ZHJVzNcXxEBQ","scope":"GOOGLE","types":["hardware_store","store","point_of_interest","establishment"],"vicinity":"Arkhitektoriv Street, 7, Kharkiv"},{"geometry":{"location":{"lat":50.0315457,"lng":36.2210224},"viewport":{"northeast":{"lat":50.0328946802915,"lng":36.2223713802915},"southwest":{"lat":50.0301967197085,"lng":36.2196734197085}}},"icon":"https://maps.gstatic.com/mapfiles/place_api/icons/generic_business-71.png","id":"f290758e3e05d7fe9cb9fe0d8b09014f39377db3","name":"LaptopSHOP","opening_hours":{"open_now":false,"weekday_text":[]},"place_id":"ChIJzyRnSjChJ0ERsOBoNO4PyTI","reference":"CmRRAAAAAkXmyaQQU46ocgjUSkr-R68Ithob-iU7GW3ESeyqxgmdXveOsIfyIcIqMyVZJtfWTLa5Qwa6yhG1iUVXOxvkLFW0FsZzR0hXkBsE59SnJbvtSK-GwtnFFaaeatSq9L9LEhAO_P1lAzndHcxYHw1AVh23GhTHrjBwOWazycCU7khDhuvac-luyQ","scope":"GOOGLE","types":["electronics_store","store","point_of_interest","establishment"],"vicinity":"проспект Леніна, 39, Kharkiv"},{"geometry":{"location":{"lat":49.969827,"lng":36.1302771},"viewport":{"northeast":{"lat":49.97117598029149,"lng":36.1316260802915},"southwest":{"lat":49.96847801970849,"lng":36.1289281197085}}},"icon":"https://maps.gstatic.com/mapfiles/place_api/icons/shopping-71.png","id":"dd060da82d97d252223521f91f6a987420745369","name":"Arti","opening_hours":{"open_now":false,"weekday_text":[]},"photos":[{"height":886,"html_attributions":["<a href=\"https://maps.google.com/maps/contrib/115828442900812354824/photos\">АРТИ</a>"],"photo_reference":"CmRaAAAAWnERzc9EUMx4dJbTrUQlDEemScUoMj9SPo55NcX9n1bnAkRTDavDYUcCLihStNd6_y7lBgeucZe_8KS4kq93dCO_4jVzJOaGUNeT92zg2R-eLoBoHOBWq8tsINJSArjqEhBGvbwe7oj8lIcHThzFuUFlGhRwQtTLY2H6NWA_MO276OxlO2mcuQ","width":1181}],"place_id":"ChIJL-9-Zg8KJ0ERDhjsKtMhFQA","rating":3.3,"reference":"ClRQAAAABklDziaGPImt-ZqlEaBwiTZsKmS-PZGlC1qK5PXY2g5vdQn1uS9BPpvupcNSqp3CZUmjk3Z1VuI4MbZw8oZHdNI089SavLrJJ2IDyjsmzjQSEK0Gxtl1nrN6s0csfeWtNCIaFC5d05usKPpcDOF68iHLS-DBvf0n","scope":"GOOGLE","types":["car_repair","store","point_of_interest","establishment"],"vicinity":"Східний майданчик, пав.16, авторинок \"Лоск\", Pisochyn"},{"geometry":{"location":{"lat":49.96764,"lng":36.25976299999999},"viewport":{"northeast":{"lat":49.9689889802915,"lng":36.2611119802915},"southwest":{"lat":49.96629101970851,"lng":36.2584140197085}}},"icon":"https://maps.gstatic.com/mapfiles/place_api/icons/shopping-71.png","id":"6479b5e141b0a3f1f317008aca2dab7b09245698","name":"Mebelgrad, Salon mebeli","opening_hours":{"open_now":false,"weekday_text":[]},"photos":[{"height":1280,"html_attributions":["<a href=\"https://maps.google.com/maps/contrib/109152043928374888949/photos\">Мебельград, Салон мебели</a>"],"photo_reference":"CmRaAAAACauYkHcDkrQ2R0r4mMrE3vlY0n6xcr7l0gYlnjTEfd0aXviRWC35F3mKzUr4tqQb_WElyp5jeQo8stmJDhT9jHKrnCJ--hAIfzC4dfo0HwuIXTwR-UtKyCh7F8dZQbjzEhCAdJyJp68A8zEGWbu0V0ANGhTgW_IkI24NEtYpszn0zMUPOo9qsw","width":1920}],"place_id":"ChIJWYBt6oEKJ0ER5VDbYGGmb-M","rating":4.8,"reference":"CmRSAAAAGDzCWh6g2UUMV-U1b1j5V7ElQWNLQd6iGjU4XFOrhJjQNm3gHdciuw3p7swAGaUcFkQgVO7d8jEol4uV4k8PbLVjuytRSLyc-G3LfPUrbUAg8g0TWUl2HqpLN5E7OA1qEhB1jt1yR6HHDNQ5FRigeMFcGhRve3gAel7FW0bvgFfD1Uiu0mvuiQ","scope":"GOOGLE","types":["furniture_store","home_goods_store","store","point_of_interest","establishment"],"vicinity":"119, пр-т Юрія Гагаріна, Харьков"},{"geometry":{"location":{"lat":50.0052622,"lng":36.2334976},"viewport":{"northeast":{"lat":50.00642338029149,"lng":36.23478773029149},"southwest":{"lat":50.0037254197085,"lng":36.23208976970849}}},"icon":"https://maps.gstatic.com/mapfiles/place_api/icons/shopping-71.png","id":"59b81fb8837bced1adcbcf3b6aa7276963f8fd29","name":"ИНТЕРТОП, МАГ.","opening_hours":{"open_now":false,"weekday_text":[]},"photos":[{"height":2322,"html_attributions":["<a href=\"https://maps.google.com/maps/contrib/103666307824243319641/photos\">Влад Лукьянчик</a>"],"photo_reference":"CmRaAAAAV-TF-GEdPylHBz_3qrPZl37jfSLHEVTxysRp3KRZxYsXkgPtWS-bsdp00rpjPcyBYqdie4_-FCTi1mj2M7znUgMXf5O-bfLTAQc5AaS3y2wgqcP8IUwvx_IBouqx74ocEhDBvP8FOmxit3giiKYTt1qIGhR-Alw5KEn18irz1hbTBGSOGt1GGg","width":4128}],"place_id":"ChIJ41mNKN6gJ0ERO4oSgFesNOY","rating":4.1,"reference":"CmRSAAAARKO9_McZo7Js2LjMJv0FPYz452rWhOSg8y7Idi39ptNVM4ot_f1FYu56PBjGpa7W0a8qFLRfgAgHTMPnmbviSo2bM5euPyUGaf8U_sQMlzmYExRfsKF9SebYjDJ9cV0gEhAHouFdCTBoF8TqnkR438rwGhTNywXCUS8WQNTP3wpOZlOIsYe7MQ","scope":"GOOGLE","types":["shoe_store","store","point_of_interest","establishment"],"vicinity":"Svobody Square, 7, Kharkiv"},{"geometry":{"location":{"lat":49.9721324,"lng":36.3043313},"viewport":{"northeast":{"lat":49.9734813802915,"lng":36.3056802802915},"southwest":{"lat":49.9707834197085,"lng":36.30298231970851}}},"icon":"https://maps.gstatic.com/mapfiles/place_api/icons/generic_business-71.png","id":"ec0989a4b14ae678422b3aeadc9807b2f02c1b4f","name":"Íntertelekom","opening_hours":{"open_now":false,"weekday_text":[]},"photos":[{"height":346,"html_attributions":["<a href=\"https://maps.google.com/maps/contrib/104946972975525778710/photos\">Інтертелеком</a>"],"photo_reference":"CmRaAAAAmJt8GmBJYtLmG9BLArr5C9Kqd6H8mL2DXyq4QZLL12g_UCpKJymKB8h3jGeSFHPRa2hXz0UzNWuLf-GicTtuZkh-IDmmEOQ-4HlQBvIu5c8ulP0wCdudiJr1TTbcAGO5EhC8S5SVabTWMERbEhRHxcZCGhQhMZnOM0iZ4HT6zDRIJTSDaYv3pw","width":540}],"place_id":"ChIJC9KTxIOgJ0EREsjxkqgOBKs","rating":4,"reference":"CmRSAAAAD9POS0Sx2RFeIY-y0Id2tndAIFoCLuMIlLaZ7TDMYYZqYzsf_bfzEzMHahEUIBR9YwYwDA2Npebuthzr_FmvtLtnexPv3YJ3ueK4JtVEqJBVBJE2ER-jOZ0aottr4ychEhAidajam_Y73UKYb38fKAlqGhRKe2rIds43PeERNmMYQQjWBB_vEw","scope":"GOOGLE","types":["electronics_store","store","point_of_interest","establishment"],"vicinity":"Московський проспект, 199а, Kharkiv"},{"geometry":{"location":{"lat":49.93745289999999,"lng":36.292019},"viewport":{"northeast":{"lat":49.93880188029149,"lng":36.29336798029149},"southwest":{"lat":49.93610391970849,"lng":36.29067001970849}}},"icon":"https://maps.gstatic.com/mapfiles/place_api/icons/shopping-71.png","id":"86abb58e4e456d2b5baf5d4797eeb6b6d9a6a769","name":"Budmen","opening_hours":{"open_now":false,"weekday_text":[]},"photos":[{"height":3120,"html_attributions":["<a href=\"https://maps.google.com/maps/contrib/110856003476235045706/photos\">Андрей Бондарев</a>"],"photo_reference":"CmRaAAAA9dzcIZ5SNQ8-Mc1oVlUmmUjGi9_Xd_6NNk2SlqRR8pjXXdyApO9nB7FewyyyeyklGxLDgh5tQq8NGZKK6B5-LfFrul6i1z8C-xv_MdbovYIRyb61jTMIFJ41SiQCXiYyEhDeJMC35NLEhP4HP44zpw4AGhRqBCE_dz6I5QXrnSR6BZ4ts__YFw","width":4208}],"place_id":"ChIJqScEmuAKJ0ERuRikBttPboE","rating":3.2,"reference":"CmRSAAAAbktHh_0PmHnDfP6vKD8W-cAvrVCXTIzsWNDBDjYeb5ahNjG5n13HdTNZnyE4tFZs91ZPVpovwyf_bk3-ARfXK-7KPki94-j5mNlDPnP_oyB2lY8A0WfdCSnT-yWynr4HEhBiRuIN_5J2hhbiJwm_oe2YGhT9mo-Ju6glIbACIa-S3dQnIVjWeA","scope":"GOOGLE","types":["hardware_store","store","point_of_interest","establishment"],"vicinity":"50-richchya SRSR Ave, 2/2, Kharkiv"},{"geometry":{"location":{"lat":49.99082499999999,"lng":36.234161},"viewport":{"northeast":{"lat":49.99217398029149,"lng":36.2355099802915},"southwest":{"lat":49.9894760197085,"lng":36.2328120197085}}},"icon":"https://maps.gstatic.com/mapfiles/place_api/icons/shopping-71.png","id":"19029b8276867674aae7721bf7e18b0669b3229e","name":"Электронный мир - Короленко","opening_hours":{"open_now":false,"weekday_text":[]},"photos":[{"height":3419,"html_attributions":["<a href=\"https://maps.google.com/maps/contrib/115842645725553086881/photos\">Konstantyn Osovoy</a>"],"photo_reference":"CmRaAAAAF7YUhj99THCPiBSd9tniFioaugWY6wUHIrxnJNNV6i6gFh1HbQ7N1ABnERnIGGbbqZ7dOuCpbc8bloM3n9x1EZq2-ONy30HVRUzi21Zc9LSK-I8PxHv-0m0FdMWGLbmBEhAKLcxMw1Hbw9uasDzYME9xGhTxmp_we8AV92Yb0FSEpxWK-Q1R1g","width":4828}],"place_id":"ChIJIYqGpPGgJ0ER2kuEadV_xqg","rating":4.7,"reference":"CmRSAAAALNDM6MxBappeDi_Bq8ZpYx0Chui-plqHkav-qJB2gBzAKQmQ4RSFtLp_9UfiHvpa69zyT4iKI7L578yszSLq-XFSgsLm56nnCV2JZYv3LWg9NfyWt8GUP0Axe3R7aIy9EhAWpoxh5PIxXs_CSswNVCRBGhRlyWPLgC5EbCTVAdoNvjmbtjthYA","scope":"GOOGLE","types":["electronics_store","hardware_store","car_repair","home_goods_store","store","point_of_interest","establishment"],"vicinity":"вул. Короленка, 6/21, Kharkiv"},{"geometry":{"location":{"lat":49.96545,"lng":36.3313899},"viewport":{"northeast":{"lat":49.9667989802915,"lng":36.3327388802915},"southwest":{"lat":49.9641010197085,"lng":36.3300409197085}}},"icon":"https://maps.gstatic.com/mapfiles/place_api/icons/shopping-71.png","id":"16f35b38902c0631688618b9370a9854dea1e2e0","name":"МТС, ООО","opening_hours":{"open_now":false,"weekday_text":[]},"photos":[{"height":257,"html_attributions":["<a href=\"https://maps.google.com/maps/contrib/111020786353801936668/photos\">Александр Аршава</a>"],"photo_reference":"CmRaAAAAymqbtItHAnhJpAJox91zK6Nk5yI0kN8PZ8nQanjIlgBT1zZpStgNVMd5WyKMuNNtoZaeD8cCW0r-unRqomB06iYp7Pe61pGYrYQ9vZDLstWAOZubH5veZ3GsNco-iUOIEhAW4AxmuaityxsP0E_mkEnVGhRXA4A4Lr0TN9egMMnKUkSKAoqrzQ","width":350}],"place_id":"ChIJoWLBpvqgJ0ERuog2FEU8C0A","rating":4.1,"reference":"CmRRAAAAnSgM0Fd5U52OPKc55Tl4sEMF0pA9Ry1pssQIKAhiadibiBk0WgPjGXNuR3jjFGPcy3dQrOK2i00dyLjq39aMgBgpIHCfs8WvMAyaiXZRT8jaITeGi-LuobY7v_1D_U4GEhAk5AKB2cbKYx7odhBIY8D6GhSen5DUmG2guvzd9TNlZhWWxczOgQ","scope":"GOOGLE","types":["car_repair","store","point_of_interest","establishment"],"vicinity":"Московский проспект 259, Kharkiv"},{"geometry":{"location":{"lat":49.995704,"lng":36.2339264},"viewport":{"northeast":{"lat":49.9974922302915,"lng":36.2348642802915},"southwest":{"lat":49.9947942697085,"lng":36.2321663197085}}},"icon":"https://maps.gstatic.com/mapfiles/place_api/icons/shopping-71.png","id":"fdad907920ba3ff46789b995549c17c626be1223","name":"Talisman - Rock Music Shop","opening_hours":{"open_now":false,"weekday_text":[]},"photos":[{"height":3120,"html_attributions":["<a href=\"https://maps.google.com/maps/contrib/113132065189710492571/photos\">Андрей Гненный</a>"],"photo_reference":"CmRaAAAACbwyRQcfeaBIv7rmG23jm3Hkkg461F_3GVAwJqXtkQ6d6szrUpLD7QAoUX697TSB8V_MfajfGXbd3lw4CWl7mB6jLGeX83OFu-Mgze9uXFqjfPRvvybsHd4flFhVAK0EEhD8aajgqdN22UE30oMS_tikGhQAOo_C9URFMKztCVockSRXhzmoyQ","width":4160}],"place_id":"ChIJEUDYneWgJ0ERNxCzmJwT46o","rating":4.4,"reference":"CmRSAAAAAhqdPDVdK-JE2oolmUJVNYY8Sx6Rzo8QH3SnYjuh-ioB-BsdcXeMCuAw_a50bKi9F5hNnNb8rbZvlom7Ko9T1zmrgW6_YI0R-gYvyAdgziZa5eMDzkAGbtmEYqUNB5z2EhD07jNfKD1RB-dTdsV4pr0EGhSroEdMMagvi98vAUS12rbD3rJEdw","scope":"GOOGLE","types":["store","point_of_interest","establishment"],"vicinity":"Sumska Street, 16, Kharkiv"},{"geometry":{"location":{"lat":49.9828128,"lng":36.23695250000001},"viewport":{"northeast":{"lat":49.9842259302915,"lng":36.2378042302915},"southwest":{"lat":49.98152796970851,"lng":36.2351062697085}}},"icon":"https://maps.gstatic.com/mapfiles/place_api/icons/shopping-71.png","id":"4b49d6e74e406ab430fe75d82bc26155eab9fcc9","name":"ДВА КАПИТАНА, МАГ.","opening_hours":{"open_now":false,"weekday_text":[]},"photos":[{"height":3480,"html_attributions":["<a href=\"https://maps.google.com/maps/contrib/114496081447615753058/photos\">Магазин &quot;Два капітани&quot;</a>"],"photo_reference":"CmRaAAAARiGC2JCnop-SHiaGSFxkISEwanb4yH1yq1c7psA3KbGZ4uKqz8KXmIpoDunGbgvDBK35Uloji1G-mStgUOT8OFuC9V8JZ2midjbhrGmY8magONTy1ox9YNBBwszu_e03EhApBeDxQWlRaKVO6NmK8AyLGhTr081SAP0vLlL4frCmAbZ5R0yovA","width":4640}],"place_id":"ChIJc8TmwAGhJ0ERiyQ0E-EdALE","rating":5,"reference":"CmRSAAAAwBceIWzOcGZ4NUG9qVcCIbli9ez6RI8bIjTeCFi4NOBfC9xKI0Q-tTi7Jk_8CmyMgSzboDJJWcqGIoCcJm6ta-5_NAj0-720m5_f_rHTPCH54Rh3yDcTiUcOsmG2rwuOEhBkWaUx1oLCwRLsinkAWwf6GhRhhOgsrICdBpGZ72PBQeq3STBrcA","scope":"GOOGLE","types":["store","point_of_interest","establishment"],"vicinity":"61000, набережа, Chervonoshkil'na embankment, 22, Kharkiv"},{"geometry":{"location":{"lat":50.02889589999999,"lng":36.3280964},"viewport":{"northeast":{"lat":50.03024488029149,"lng":36.3294453802915},"southwest":{"lat":50.02754691970849,"lng":36.3267474197085}}},"icon":"https://maps.gstatic.com/mapfiles/place_api/icons/shopping-71.png","id":"4cdb3a62347502a824bae80616d36570dca33bf8","name":"Intertop","opening_hours":{"open_now":false,"weekday_text":[]},"place_id":"ChIJ_VH2W2WnJ0ERizwa-xDFizk","rating":3.5,"reference":"CmRRAAAADqPeP5GKIbUidsZE79LdPU9wiUWyrMA9rQRt3Or1AnS7LKBYX6IVxES_tGWsoS2gFi9JgfokxHG2C1-LGsrDrywGe9A_svPoFThKxWsEVThXy-mrp71u6DucZ2FEJJn3EhAyaGT8_j_s1zS5-jaIqY5vGhTWJav9JuOpQ23gEQuTB8knZEi74A","scope":"GOOGLE","types":["shoe_store","store","point_of_interest","establishment"],"vicinity":"Heroiv Pratsi Street, 7, Kharkiv"},{"geometry":{"location":{"lat":50.00498,"lng":36.24325200000001},"viewport":{"northeast":{"lat":50.0063542802915,"lng":36.2445418802915},"southwest":{"lat":50.0036563197085,"lng":36.2418439197085}}},"icon":"https://maps.gstatic.com/mapfiles/place_api/icons/shopping-71.png","id":"8ce47a37b648adb49b78fe97523b13bfb0994f21","name":"Magazin \"Elektronnyy mir\"","opening_hours":{"open_now":false,"weekday_text":[]},"photos":[{"height":3372,"html_attributions":["<a href=\"https://maps.google.com/maps/contrib/115842645725553086881/photos\">Konstantyn Osovoy</a>"],"photo_reference":"CmRaAAAA3g--bZfi87bcjiHs_gpqVgOlhkny-fMJtLaJ_SJ-rkp5IPwLbyu9YcmBwZ5DBCOaW2JSh_GW1fKwX39rkneiVyerCkJXvdjhHH-DAM4Wwp5ewuyTgvugMC1Ovnqw78eBEhBi_m_muAzaemWgO1Yb7IygGhRCwyaNbr_pjymU8RMs1c4iSje6wg","width":5184}],"place_id":"ChIJtctD_NygJ0ERx-BLr_zwhYg","rating":4.7,"reference":"CmRSAAAArj4tpioSLuVUtyZcpPHENdolzcOIIIu_YtkBtBcCvBpOCoo-3-gOfdl5liTZdPSnwj2gKjBq8DKdt1IxeHu1V52Af1Hk5-60zSeUV2zwtsQrUmg76qyAmQnxqa_B-XbtEhCC11BHnnUQ2K9YMoLWufRbGhTEtfPqxPJkGDgeGZapMY3wczChaQ","scope":"GOOGLE","types":["electronics_store","hardware_store","car_repair","home_goods_store","store","point_of_interest","establishment"],"vicinity":"Alchevskyh Street, 36, Kharkiv"},{"geometry":{"location":{"lat":50.009221,"lng":36.216693},"viewport":{"northeast":{"lat":50.0105438802915,"lng":36.2178733302915},"southwest":{"lat":50.0078459197085,"lng":36.2151753697085}}},"icon":"https://maps.gstatic.com/mapfiles/place_api/icons/shopping-71.png","id":"1e94a74cb49c31588671708f862187134f2d801b","name":"Sport-Tovary.com.ua","opening_hours":{"open_now":false,"weekday_text":[]},"photos":[{"height":820,"html_attributions":["<a href=\"https://maps.google.com/maps/contrib/111059389782014722932/photos\">Sport-Tovary.com.ua</a>"],"photo_reference":"CmRaAAAAuOWLP98wLwFP1OJB5p4-pwJXH7En9MMUlM3lzeaa3B9Cmx0dEBDcdzl9bLpdbjMRlL797gA12xGIBvZeS_oui5YplL1UBtlDDuMBNvVVfSjjVIsg62b3Koe6r7l65rjjEhAkXVry6rKW5GayU55bRhIHGhRyoUZiF0SL6mGbsMMxH4ojr5h-yA","width":1263}],"place_id":"ChIJ8xp1YhihJ0ERFOHSRzSs8TE","reference":"CmRRAAAAByV4JmsTYLy-acpkD8mh8h7Y6Ga5ymWiDnjcFVfVB2BYqIkt99Pv4qdRfJ-SqcfOMcgJsLe-ElJyL1C9YOgC_BZBFuKFcIw77UuYNXq0-uUSl2R8UWsa4TRVDyo0ingtEhBgGE4rox5mSmR3CAsO6wyxGhTiDI_dj4T1nrX0JZ4br7UF5N45XQ","scope":"GOOGLE","types":["store","point_of_interest","establishment"],"vicinity":"Sukhumska Street, 24, Kharkiv"},{"geometry":{"location":{"lat":49.992918,"lng":36.22334999999999},"viewport":{"northeast":{"lat":49.9940337802915,"lng":36.22475823029149},"southwest":{"lat":49.9913358197085,"lng":36.22206026970849}}},"icon":"https://maps.gstatic.com/mapfiles/place_api/icons/shopping-71.png","id":"9158a421a5dcdc334b66ecddfe24cbc7a4ba72b2","name":"Magazin bytovoy tekhniki Teleman","opening_hours":{"open_now":false,"weekday_text":[]},"photos":[{"height":500,"html_attributions":["<a href=\"https://maps.google.com/maps/contrib/104586223058080395532/photos\">Юрий Ломаев</a>"],"photo_reference":"CmRaAAAAL3-du-CGpFcUcSmlhhN3o6WiXUycaTyW5phuVfL4uZK2CEIetgKVkHRhPUdzZq366pApxvjEzUAdjQFnMkdbANFZvH7_txBDQdDgCcOXUzE8aQUGh1X6qH0SAwbRly5EEhBlc0P0SFuIWvZtrS9POs-GGhRlpUNpJrG9X3FBoT-ILNyE_yj0AQ","width":500}],"place_id":"ChIJ0SRAt_ugJ0ER-fa_8vlfMNU","rating":4.7,"reference":"CmRSAAAAVtuosSFnw62j_1nx3kbnGEVidjcUYKz4iNxLnN7brGZzfan9Ct3xiRYsFqOo_6-WyfTD6H9yZdF6uxzcUfSowQkxVG5y_ABwxvJQyQCfIxRhpLIkwochWwrflPPb6BA8EhC4IqAs-DozD8i6jI2DUws7GhRp00z6-4dCrk1cMYZXcCtCCX9nTQ","scope":"GOOGLE","types":["home_goods_store","store","point_of_interest","establishment"],"vicinity":"Suzdal's'ki Ryady Street, 9, Kharkiv"},{"geometry":{"location":{"lat":50.0154352,"lng":36.2127319},"viewport":{"northeast":{"lat":50.0167781302915,"lng":36.2139977302915},"southwest":{"lat":50.0140801697085,"lng":36.2112997697085}}},"icon":"https://maps.gstatic.com/mapfiles/place_api/icons/shopping-71.png","id":"4c0b6c3d5179264bd97be7b52d7e96eedc976f58","name":"Pivnushka","place_id":"ChIJpeyisz2hJ0ERF755N5-l6vo","rating":1,"reference":"CmRSAAAA4iKahL82WZKsFgH1Eez83nrx7mejE0PQfDWjU2wy4nfFhny-pNtr8Ev6o-l-oEC491kwj9MR_si1mUT3wq6e1z340Nx3KcK0ES6khCdHXnyGMKsMGtEcNaccPDFHeyMWEhAIkTQLQ-Bx7djKhJ-gQ7aYGhRDor7g1RkqqfAcD-uW6JMw_Mx5ew","scope":"GOOGLE","types":["liquor_store","store","point_of_interest","establishment"],"vicinity":"Sofiivs'ka Street, Kharkiv"},{"geometry":{"location":{"lat":49.98666,"lng":36.23142199999999},"viewport":{"northeast":{"lat":49.9879386802915,"lng":36.2328237802915},"southwest":{"lat":49.98524071970851,"lng":36.2301258197085}}},"icon":"https://maps.gstatic.com/mapfiles/place_api/icons/shopping-71.png","id":"9d954074e0fa5e106e3b7c67f66c040d54f4dc92","name":"SantehHouse Salon magazin santekhniki i plitki","opening_hours":{"open_now":false,"weekday_text":[]},"place_id":"ChIJDYnDn_agJ0ERlRdxdm-E3RU","rating":5,"reference":"CmRRAAAA5_Vp-HmrhlJq19mbbEIVTSpUJQDac-NFOkBf8pWPBSWKUyDmbjeXEHY_HdzEZ0AOfxmHFirIBD3AdJdDSf9K_j9JHEd_NOai0R6u3Pm2svQXpmkoJxqm3DZ08rPOEPlyEhCBGUjErdkxBu7UA8Tq2hJFGhTNShn2kEtQUggrUmd53Jv9_yR5Fw","scope":"GOOGLE","types":["home_goods_store","store","point_of_interest","establishment"],"vicinity":"Kooperatyvna Street, 3, Kharkiv"},{"geometry":{"location":{"lat":50.031215,"lng":36.22311999999999},"viewport":{"northeast":{"lat":50.03256398029149,"lng":36.22446898029149},"southwest":{"lat":50.02986601970849,"lng":36.2217710197085}}},"icon":"https://maps.gstatic.com/mapfiles/place_api/icons/shopping-71.png","id":"689bf76dacde0c57c46fccd0d99eb1e1af6dfab8","name":"Ера електроніки","opening_hours":{"open_now":false,"weekday_text":[]},"photos":[{"height":500,"html_attributions":["<a href=\"https://maps.google.com/maps/contrib/112983406343558786744/photos\">Ера електроніки</a>"],"photo_reference":"CmRZAAAAydJ7wM1_WXBANisStiDqa9acZVvuDFsXI8_PH4X9OePO9Rku1AOlhKT5D8xMxVrVs_WclrrTjfC8gT-79aqFF9J1jlfSv3q7KSEMWuPoKzo9YjVhtWg1XwydO2IvoyvJEhAS7ECvWheSyXOyFaMwjimRGhQavyEC2f3cm3mr8HtXlVSSeusKFg","width":500}],"place_id":"ChIJgVxiRDWhJ0ERFrjdv04YnMo","rating":4.5,"reference":"CmRSAAAAdT4HQpHGMzrisBSGuDMab-0K3j7cIR8mOez9wG6jv5r_7LUAuUxuK7Kv4JHkNWYUD6YjTdROV1j9kKUQJ5wZpU2VmatAD1RrGQONa5mtjPGz56lBwXeL7uPB-QdrpWKGEhCIL_YJ9xkbm717z7sQlNFqGhTC5QkRItx_EZpkDWR2ccY3KUu-WA","scope":"GOOGLE","types":["electronics_store","store","point_of_interest","establishment"],"vicinity":"вул. Тобольська, 42, Kharkiv"},{"geometry":{"location":{"lat":50.0042973,"lng":36.2459685},"viewport":{"northeast":{"lat":50.0056863302915,"lng":36.2473611302915},"southwest":{"lat":50.0029883697085,"lng":36.2446631697085}}},"icon":"https://maps.gstatic.com/mapfiles/place_api/icons/restaurant-71.png","id":"b0c1846877e4b922751f6209718fc91f40f062a5","name":"Paris","opening_hours":{"open_now":false,"weekday_text":[]},"photos":[{"height":3120,"html_attributions":["<a href=\"https://maps.google.com/maps/contrib/114358980158908084943/photos\">Denys Ivanets</a>"],"photo_reference":"CmRaAAAAu4pO1XXdXn2PMQc2BcfheXaVH5B9EyA2nkoPytJZhk6--lIs9KVJsaOFnFMTDVBcdRku1BoaLe6MYpKG7uGHJ5Rj1YLg4RNx_le1eaUcs7Q-HlNtNHcY6vCIaHaqVXJHEhCl6S8wOr2UHHyanDMZnw5dGhQczldhbnMckHVGrL2EEDRag6D4uA","width":4160}],"place_id":"ChIJ6UCP2tygJ0ERRJmMWID1zMA","rating":4.6,"reference":"CmRSAAAAI9WwICommZOKE05wtaz5RYe-N0v4QkaIGdiwX2AJkryWnurHQclsD1IE__WZb5n9lrOKTM_P81bx5aCsUYy1DPa6U-is1zLUHjv1IBqRfnTWNG0bR3wXKqy8dyeoi4gYEhBtH2Jsyefg7dpmsRwU8-6pGhSMuCCo-gRFG8IVlT93XfZz2ruMEg","scope":"GOOGLE","types":["bakery","restaurant","food","store","point_of_interest","establishment"],"vicinity":"Yaroslava Mudrogo Street, 30, Kharkiv"},{"geometry":{"location":{"lat":50.03402999999999,"lng":36.220293},"viewport":{"northeast":{"lat":50.03541038029149,"lng":36.22185833029149},"southwest":{"lat":50.0327124197085,"lng":36.2191603697085}}},"icon":"https://maps.gstatic.com/mapfiles/place_api/icons/shopping-71.png","id":"bc21fc698fff802b7b9e83483d2e119d63d3757b","name":"Eroticland Kharkov - Intim magazin","opening_hours":{"open_now":false,"weekday_text":[]},"photos":[{"height":845,"html_attributions":["<a href=\"https://maps.google.com/maps/contrib/103601456374219458790/photos\">Eroticland Харьков - Интим магазин</a>"],"photo_reference":"CmRaAAAAtYh-eOtRoOiFNrEz-veTidJ3uyL1fHNp10ewlXDuROIY5JwreTKsTBScqLN_wZE-OLDYFffEpD06lKckG-4yHfdtAIIbjUzucB6AEhANYq01rS_3XN7gw5NBobJXBFTXEhDWffEBqp1eByiXq3SFart-GhQBpOUHBwwfcSOcPjPdqb-a27JHfw","width":1490}],"place_id":"ChIJ6U0ntzWhJ0ERt8OfdZhZYDY","rating":4.9,"reference":"CmRRAAAA3NAmSpzqdPb7pPm0ihnts9luZ5ScKQFkn6Wo0FAGD2n8OUU6YuD6SfvF6ioHj80bmu47gLTISU-8sqjRo5fgSak94qOMUBFQi-IN_sf-YmyfJLCtklEPXNg4T9wlzKS4EhBV-Zgyqj_OIi1pC4o4Bn7KGhSOHfstHfdFkp47hDWglPBdLInEmA","scope":"GOOGLE","types":["store","point_of_interest","establishment"],"vicinity":"Nauky Avenue, 41/43, Kharkiv"},{"geometry":{"location":{"lat":50.06811039999999,"lng":36.1995113},"viewport":{"northeast":{"lat":50.06945938029149,"lng":36.20086028029151},"southwest":{"lat":50.0667614197085,"lng":36.19816231970851}}},"icon":"https://maps.gstatic.com/mapfiles/place_api/icons/shopping-71.png","id":"bb21d9f7a57eaf97985f3b3fbc2753471d8cd8fd","name":"Epicentr K","opening_hours":{"open_now":false,"weekday_text":[]},"photos":[{"height":3024,"html_attributions":["<a href=\"https://maps.google.com/maps/contrib/103457139663972919324/photos\">Vadim Avramishin</a>"],"photo_reference":"CmRaAAAAr7FjwdGkK5JvynFq_3uN4HMPJt_rFgeo5OLhIWiTyZABtye8wveLCHidhw9a_Cw_FK3xHy2wZJNuE25OPSdYORnm7RDyATu2U52TlJQTWMiKGcb-Omgw_b41R_M8O6iTEhDwan3LYXoFTnn5seB7lPlnGhQ4q96SUvwvmpQLjDRq4_zbd4f4vw","width":4032}],"place_id":"ChIJc_5zLxakJ0ERnkUopaJbpgk","rating":4.2,"reference":"CmRRAAAA09Hb0XTJtvCC89aZzPhVPjNa9uY7Y47BDy3t1h6gSkq7i5QgoWthxbuJVL4qyrhyNzYvmY4oyQmsP_AJwUxsS8MRR50HIMdWyuLMYczi4TWx51OzHECwKvXK0EKeWXPbEhAa7o2zNOcXbdIYLL7R3pzvGhTHxcnkyYHE0ZdmxdPw2F0spEiDgw","scope":"GOOGLE","types":["hardware_store","store","point_of_interest","establishment"],"vicinity":"Arkhitektoriv Street, 7, Kharkiv"},{"geometry":{"location":{"lat":50.0315457,"lng":36.2210224},"viewport":{"northeast":{"lat":50.0328946802915,"lng":36.2223713802915},"southwest":{"lat":50.0301967197085,"lng":36.2196734197085}}},"icon":"https://maps.gstatic.com/mapfiles/place_api/icons/generic_business-71.png","id":"f290758e3e05d7fe9cb9fe0d8b09014f39377db3","name":"LaptopSHOP","opening_hours":{"open_now":false,"weekday_text":[]},"place_id":"ChIJzyRnSjChJ0ERsOBoNO4PyTI","reference":"CmRRAAAA7HfdzFROWNh_Mxg8r0PUpT9t6Dk4zzCazslC4r-ol4y3RfuKOzDF3yUxFcNOsV-2f4E3sx6jlJvGeqIFp6Zm4U1lnnu6160TU00tPptESfLDu3ef0MsK8RqlAp-HUMXUEhADrz-Z78tR7ck4d_muJYu6GhRQW_8QBh2blxHKenZZaCyUWtTb_w","scope":"GOOGLE","types":["electronics_store","store","point_of_interest","establishment"],"vicinity":"проспект Леніна, 39, Kharkiv"},{"geometry":{"location":{"lat":49.969827,"lng":36.1302771},"viewport":{"northeast":{"lat":49.97117598029149,"lng":36.1316260802915},"southwest":{"lat":49.96847801970849,"lng":36.1289281197085}}},"icon":"https://maps.gstatic.com/mapfiles/place_api/icons/shopping-71.png","id":"dd060da82d97d252223521f91f6a987420745369","name":"Arti","opening_hours":{"open_now":false,"weekday_text":[]},"photos":[{"height":886,"html_attributions":["<a href=\"https://maps.google.com/maps/contrib/115828442900812354824/photos\">АРТИ</a>"],"photo_reference":"CmRaAAAAu5XjgX0bAJMytjcW005AdoEx5b0G4VJC-K1X1TwslgvyQF_2e0nK7gIpaTuEhPC7Q4NnjyFyINsw66auVlAlcdELF9_ktSie4mmVhp81hnxTKZCq4zga3qD6i2NqrIgmEhCCRWf_WVCN2JnYHcMJvDUaGhR4gckFARaAMNHqyaQI1MfT8Axh_A","width":1181}],"place_id":"ChIJL-9-Zg8KJ0ERDhjsKtMhFQA","rating":3.3,"reference":"ClRQAAAAc7TCYkS7Us-zZziFshu_u5SjxErMWdUB5Q-twzywLvvfk06Y9ah_7yGiNune4pxc3-Q4YAA3RtiX21dJMYfRy4lI16Oo2xh2Y8nwYo9JyvUSEE0iOjToAyC_gpCJS4_1nwwaFPdSKaZM4MCvIjrGGICLdpQmh9Me","scope":"GOOGLE","types":["car_repair","store","point_of_interest","establishment"],"vicinity":"Східний майданчик, пав.16, авторинок \"Лоск\", Pisochyn"},{"geometry":{"location":{"lat":49.96764,"lng":36.25976299999999},"viewport":{"northeast":{"lat":49.9689889802915,"lng":36.2611119802915},"southwest":{"lat":49.96629101970851,"lng":36.2584140197085}}},"icon":"https://maps.gstatic.com/mapfiles/place_api/icons/shopping-71.png","id":"6479b5e141b0a3f1f317008aca2dab7b09245698","name":"Mebelgrad, Salon mebeli","opening_hours":{"open_now":false,"weekday_text":[]},"photos":[{"height":1280,"html_attributions":["<a href=\"https://maps.google.com/maps/contrib/109152043928374888949/photos\">Мебельград, Салон мебели</a>"],"photo_reference":"CmRaAAAASRYSObv4S8QKjRIv97siM-rV5RliJPxtfE2tM5SIxaCXbZAouBamtu91US63DqgeIl0mKxP1TCPb2LtjeGG4M3YBorq8TYApIa_h1qSzGbKF1ta8VZqqsoJ7XsPXFoW0EhDPmrFsiYqvFYlM147EsN0cGhQ46PexOBRIH4yQzBeeRk8u0HJWQg","width":1920}],"place_id":"ChIJWYBt6oEKJ0ER5VDbYGGmb-M","rating":4.8,"reference":"CmRSAAAAT9cpepYmha521r98W6JUq0a6y0b3GrfCBvGfT0gcEpD5nYNqiC2s1aIG6Du43s24PWEsdGYEZb-nSLgvoLNHzA7EMSJS_uuM3GLxbN6S6Yq8-Sz58zqPAdM_O7wXjwy0EhDQzrkC1OKnfxtWwoxxWiXTGhQs5DboYywg43S8rR-oGtPLV641Ow","scope":"GOOGLE","types":["furniture_store","home_goods_store","store","point_of_interest","establishment"],"vicinity":"119, пр-т Юрія Гагаріна, Харьков"},{"geometry":{"location":{"lat":50.0052622,"lng":36.2334976},"viewport":{"northeast":{"lat":50.00642338029149,"lng":36.23478773029149},"southwest":{"lat":50.0037254197085,"lng":36.23208976970849}}},"icon":"https://maps.gstatic.com/mapfiles/place_api/icons/shopping-71.png","id":"59b81fb8837bced1adcbcf3b6aa7276963f8fd29","name":"ИНТЕРТОП, МАГ.","opening_hours":{"open_now":false,"weekday_text":[]},"photos":[{"height":2322,"html_attributions":["<a href=\"https://maps.google.com/maps/contrib/103666307824243319641/photos\">Влад Лукьянчик</a>"],"photo_reference":"CmRaAAAAEk1YKMTrCpBcyro7EzEMrguVbeRlS2rT9cEtfz5kFgUEe8IgjUg-SUxhiKNb9wS_tfEjBCc0daC18CipLotTZCqaRTPMAqfME2ETQp85t-vl-E9AG3_IR6kFqUHcxMXTEhBuUMaeSI2rEvsIqPySJGdIGhTkfBVIPWl5pr7-mXRmQjc_I7TOGA","width":4128}],"place_id":"ChIJ41mNKN6gJ0ERO4oSgFesNOY","rating":4.1,"reference":"CmRSAAAA2eTib8f4JgRYz6ak6I7sv1cPNKpcUU7AXSP_fOwkqNyFga3MJvOAwxHyKOvkEAUrgs1JoxB8Q-A4Kkb0BiMaUhIZhf2b9_Lcra8bn9no576bVKwF7exKw9acPQoCioP0EhAKeEP13J2Tw_V1U4cPyBVfGhSzwcAFSfT7Y6tfQTl09zzefVAKVQ","scope":"GOOGLE","types":["shoe_store","store","point_of_interest","establishment"],"vicinity":"Svobody Square, 7, Kharkiv"},{"geometry":{"location":{"lat":49.9721324,"lng":36.3043313},"viewport":{"northeast":{"lat":49.9734813802915,"lng":36.3056802802915},"southwest":{"lat":49.9707834197085,"lng":36.30298231970851}}},"icon":"https://maps.gstatic.com/mapfiles/place_api/icons/generic_business-71.png","id":"ec0989a4b14ae678422b3aeadc9807b2f02c1b4f","name":"Íntertelekom","opening_hours":{"open_now":false,"weekday_text":[]},"photos":[{"height":346,"html_attributions":["<a href=\"https://maps.google.com/maps/contrib/104946972975525778710/photos\">Інтертелеком</a>"],"photo_reference":"CmRaAAAAfMFHOdA4sDqDXNR47nXM9_Q78VnUvweszqrGoNwVDVEcpwraeOnbuy8ZxIOQNsJABz0GuS6HLCJhcaUQ7u11XjGpv0QmLGwJhz6fz08oPRHj-Oc9cm5GcvcaOaQBJKWhEhCAE8J2a1HuEyyorEUSz6atGhQDUGTfD1DbJa1PZSyjdcdIOxd4pQ","width":540}],"place_id":"ChIJC9KTxIOgJ0EREsjxkqgOBKs","rating":4,"reference":"CmRSAAAABIoMi2UUiyP54cjWbtZVVKdcEuUyTeAUEQ0kIBqgIGitMt9SyTn8I5e-1SABo7V_HM2G2SOZJcABNPBgDlZyvIjgJOZF65oTD_44OZxZUqGWpoju_zfmKL0AH47RvSTTEhCXMCYTsf9grNupIqIMLvOxGhTXyJwxKln09PMC3nxv1iQiJ4xIYA","scope":"GOOGLE","types":["electronics_store","store","point_of_interest","establishment"],"vicinity":"Московський проспект, 199а, Kharkiv"},{"geometry":{"location":{"lat":49.93745289999999,"lng":36.292019},"viewport":{"northeast":{"lat":49.93880188029149,"lng":36.29336798029149},"southwest":{"lat":49.93610391970849,"lng":36.29067001970849}}},"icon":"https://maps.gstatic.com/mapfiles/place_api/icons/shopping-71.png","id":"86abb58e4e456d2b5baf5d4797eeb6b6d9a6a769","name":"Budmen","opening_hours":{"open_now":false,"weekday_text":[]},"photos":[{"height":3120,"html_attributions":["<a href=\"https://maps.google.com/maps/contrib/110856003476235045706/photos\">Андрей Бондарев</a>"],"photo_reference":"CmRaAAAAZAaHD6eZj9KQ0_Z2AYMQn8Ycd-jfLrKNIa5IlYqCYNN0UoHBSToYoS592FdsLkS5M3Bc773mr4bm5lcOJ3jkSSwVhN5Rg2O8p-CcW5ZFq5WLBoImZolAIAQXKQddGFK2EhAz0FlyabUa8AlyXqVDTCoWGhT0BUq9vhfhFfV8wFLXhZBU7n0fVA","width":4208}],"place_id":"ChIJqScEmuAKJ0ERuRikBttPboE","rating":3.2,"reference":"CmRSAAAAy2d7d1qzLz8i5OgPYnhK5q6XzFCVw8ib7whUvrVATjLu8b47WRMjSCG7jqsUSQ196kLru-r_LK6XZNqnquMaSytbpqpVBOHjdj43iD19KpPIZpM4uexOuzuw8J6ecLlxEhARw_0ozROqBwnwHrFyngTiGhSM42Wmj2Hq7cTgAOcARODjT-NZPg","scope":"GOOGLE","types":["hardware_store","store","point_of_interest","establishment"],"vicinity":"50-richchya SRSR Ave, 2/2, Kharkiv"},{"geometry":{"location":{"lat":49.99082499999999,"lng":36.234161},"viewport":{"northeast":{"lat":49.99217398029149,"lng":36.2355099802915},"southwest":{"lat":49.9894760197085,"lng":36.2328120197085}}},"icon":"https://maps.gstatic.com/mapfiles/place_api/icons/shopping-71.png","id":"19029b8276867674aae7721bf7e18b0669b3229e","name":"Электронный мир - Короленко","opening_hours":{"open_now":false,"weekday_text":[]},"photos":[{"height":3419,"html_attributions":["<a href=\"https://maps.google.com/maps/contrib/115842645725553086881/photos\">Konstantyn Osovoy</a>"],"photo_reference":"CmRaAAAAF-iY18UKnUIZaqks3nRvEslXJwkA8hTFoTYqsYqI8ct812_qZMT7kqVwhrbQ5BzdbHCd53zHsuuRr-pxqQBpjsEXUxJLfpAkpf7NachlL7StSn_a1fQN_dFKHyFzLp4nEhDbTOsUmirGm7sqVD9_J3IOGhRg4iO20TM2LjHxZs6CBpLs5fmFmA","width":4828}],"place_id":"ChIJIYqGpPGgJ0ER2kuEadV_xqg","rating":4.7,"reference":"CmRSAAAA2GYSs6FGo8sZJ5vKsqbnUVc0ufQqgW2wZysCros1kJ_2UTkstp-i6Yxggu1rKe4yypWvnIUAq-RmJ63Hj5r7lPUyRCZeecs1LdAvQQlsD_WiLj3zuuzGZ_na5rk8TnBDEhAQJvhWl_sJAWQCFmtiSw1SGhT2WLq4cSYuqSEruDykNerbcRPqng","scope":"GOOGLE","types":["electronics_store","hardware_store","car_repair","home_goods_store","store","point_of_interest","establishment"],"vicinity":"вул. Короленка, 6/21, Kharkiv"},{"geometry":{"location":{"lat":49.96545,"lng":36.3313899},"viewport":{"northeast":{"lat":49.9667989802915,"lng":36.3327388802915},"southwest":{"lat":49.9641010197085,"lng":36.3300409197085}}},"icon":"https://maps.gstatic.com/mapfiles/place_api/icons/shopping-71.png","id":"16f35b38902c0631688618b9370a9854dea1e2e0","name":"МТС, ООО","opening_hours":{"open_now":false,"weekday_text":[]},"photos":[{"height":257,"html_attributions":["<a href=\"https://maps.google.com/maps/contrib/111020786353801936668/photos\">Александр Аршава</a>"],"photo_reference":"CmRaAAAAa-rpXw1cnEuMIZQ_UvrSLJIpxWEbuzgQ-6NQb8vvnh-ygHMJSb1kkComz90w7EzC-2-w7Z8p1yiLyhnr3TIGGd0tq5yJFOms52XeCeY6_Ugol81p6IyM8M6Ib9YCwovfEhCvomhCctRxkWIZoX9TeGElGhQfNXMpRFSzpXe_uWf0C9WTZvqpsw","width":350}],"place_id":"ChIJoWLBpvqgJ0ERuog2FEU8C0A","rating":4.1,"reference":"CmRRAAAAhWg4bWeSV_L1xZqUFOG34SmUzXgjH1Wqm_NCdlbOu10sLUygt5UBHQvhBtO_2qTt8Gtl_JTK411gRAThVW_vV4zcmltd6NpGzFf9_9yieAT0QWo0t-EOr4kyM6hDxxwxEhDY6dGmiFoXrsd65Ex1ncURGhRJwYTS8R8nb047HZQGjii2224mJQ","scope":"GOOGLE","types":["car_repair","store","point_of_interest","establishment"],"vicinity":"Московский проспект 259, Kharkiv"},{"geometry":{"location":{"lat":49.995704,"lng":36.2339264},"viewport":{"northeast":{"lat":49.9974922302915,"lng":36.2348642802915},"southwest":{"lat":49.9947942697085,"lng":36.2321663197085}}},"icon":"https://maps.gstatic.com/mapfiles/place_api/icons/shopping-71.png","id":"fdad907920ba3ff46789b995549c17c626be1223","name":"Talisman - Rock Music Shop","opening_hours":{"open_now":false,"weekday_text":[]},"photos":[{"height":3120,"html_attributions":["<a href=\"https://maps.google.com/maps/contrib/113132065189710492571/photos\">Андрей Гненный</a>"],"photo_reference":"CmRaAAAAAiADKXpnzkWVo33ad0Sal0kbPP56OSTFKVI6geFX_1Ute8k7e5xvUiU3dgeBJy1qxnNZd0353b9YCAZUpmjwznvEqRPaz7TTfxnYydNXaKHR9x_thLNsryJ1IexF2pyREhCdDI113i8Bgukz6j1E8UypGhTY_rvWYSuFY4zaF-Xo3stXj5AIqg","width":4160}],"place_id":"ChIJEUDYneWgJ0ERNxCzmJwT46o","rating":4.4,"reference":"CmRSAAAAwiRETNUe8Ga5nDsQzBYPFodh9zDBnFltnTQ4rwI3uDFlrmSPTl-FqPRN3BpAMwmC0OP2ThC5EdBag6qatGOztB4rszA2-jY9XWWDbuaBsjWK4y7JlIgf40pg7jSn2XZ8EhDVKSbW1J7_cAbkWp2VZLp2GhQfvPxMoeSKD36Dvqm-f84bqi-xkg","scope":"GOOGLE","types":["store","point_of_interest","establishment"],"vicinity":"Sumska Street, 16, Kharkiv"},{"geometry":{"location":{"lat":49.9828128,"lng":36.23695250000001},"viewport":{"northeast":{"lat":49.9842259302915,"lng":36.2378042302915},"southwest":{"lat":49.98152796970851,"lng":36.2351062697085}}},"icon":"https://maps.gstatic.com/mapfiles/place_api/icons/shopping-71.png","id":"4b49d6e74e406ab430fe75d82bc26155eab9fcc9","name":"ДВА КАПИТАНА, МАГ.","opening_hours":{"open_now":false,"weekday_text":[]},"photos":[{"height":3480,"html_attributions":["<a href=\"https://maps.google.com/maps/contrib/114496081447615753058/photos\">Магазин &quot;Два капітани&quot;</a>"],"photo_reference":"CmRaAAAAQE2D01Q4Q1uPnrKjg6tlUecwnM0TtO4_nEiKHPHuDV1_orkfvtWBEkm78QkhVN7CpBayqSKXd8F8H9kWSrzdNyqXViA3bmhR6w-eINz4LW7uSZAAKlGtxWDQ_70HpSSsEhAp6-tQQ-2z_Zw1V-OR6A0rGhT-JYOeMeFlj8XZmO88d_VyArKOzw","width":4640}],"place_id":"ChIJc8TmwAGhJ0ERiyQ0E-EdALE","rating":5,"reference":"CmRSAAAA6QU7eQdZtm7xAMoW2HxQ9Syn31UmQ7iTU5A_DgPLwycqAehuYTimjwU9eJN0mVUUCdEOZhor6yd8FXv3DaH9evFe2RdHb_2KwO53FRML19up_6jHxaEtNKIXg7LeKgiYEhDqz_6HvIDJ_ePTSlfE0FhQGhRsG2ufHnWmjDHIjOufzKfkf0Q6Dw","scope":"GOOGLE","types":["store","point_of_interest","establishment"],"vicinity":"61000, набережа, Chervonoshkil'na embankment, 22, Kharkiv"},{"geometry":{"location":{"lat":50.02889589999999,"lng":36.3280964},"viewport":{"northeast":{"lat":50.03024488029149,"lng":36.3294453802915},"southwest":{"lat":50.02754691970849,"lng":36.3267474197085}}},"icon":"https://maps.gstatic.com/mapfiles/place_api/icons/shopping-71.png","id":"4cdb3a62347502a824bae80616d36570dca33bf8","name":"Intertop","opening_hours":{"open_now":false,"weekday_text":[]},"place_id":"ChIJ_VH2W2WnJ0ERizwa-xDFizk","rating":3.5,"reference":"CmRRAAAAAB0y-2pspjBoW2uIaWel42jfSQroSV4hnDPp-hAXyfrWlRgpgTLP2fJRFQWfRlxwV8d39mkUUKvVTz1fQcAWgbtJxUw2vEZ_qaIqXTzpaGOADWt0h4mTAPLisA_CbJsBEhC2yt4UMymjJg9s_wS-FXGqGhSMrxKNHr3w1GEElYYJhdnCClMNrA","scope":"GOOGLE","types":["shoe_store","store","point_of_interest","establishment"],"vicinity":"Heroiv Pratsi Street, 7, Kharkiv"},{"geometry":{"location":{"lat":50.00498,"lng":36.24325200000001},"viewport":{"northeast":{"lat":50.0063542802915,"lng":36.2445418802915},"southwest":{"lat":50.0036563197085,"lng":36.2418439197085}}},"icon":"https://maps.gstatic.com/mapfiles/place_api/icons/shopping-71.png","id":"8ce47a37b648adb49b78fe97523b13bfb0994f21","name":"Magazin \"Elektronnyy mir\"","opening_hours":{"open_now":false,"weekday_text":[]},"photos":[{"height":3372,"html_attributions":["<a href=\"https://maps.google.com/maps/contrib/115842645725553086881/photos\">Konstantyn Osovoy</a>"],"photo_reference":"CmRaAAAANQiHKKlKLRYC4RHF3SWjSFbVdwTuAyfpdynZ7dTaGZAE6OFo2e1gFrJ6AkM01q-QvuIhLOY20wS8ZPasx4R-nCYDsUxHi6Ds5a5ZY5DLurFo8zvb1twjld5rZdE6aVKcEhCDQaKG1lpN7OxVaJ6io9nNGhT6Mul5SHqulYwrX7L1A_o11XkIAg","width":5184}],"place_id":"ChIJtctD_NygJ0ERx-BLr_zwhYg","rating":4.7,"reference":"CmRSAAAApWodyfxk3Jk6kItK1crbI-hQrKnCTMq41I90WIU8bmJQv8Mz0sK4F-BUs0Cca2TcJ2xRzY0RVOGTBOyH3K_WNfwdBLZ8c2F0ohwNPPS8WVykAWehWYvsQYCpjAeit82WEhCmhKfd_IJmovrN1t1ua6inGhTfSmlkuipnph6RKcsv1uneXuZJ8Q","scope":"GOOGLE","types":["electronics_store","hardware_store","car_repair","home_goods_store","store","point_of_interest","establishment"],"vicinity":"Alchevskyh Street, 36, Kharkiv"},{"geometry":{"location":{"lat":50.009221,"lng":36.216693},"viewport":{"northeast":{"lat":50.0105438802915,"lng":36.2178733302915},"southwest":{"lat":50.0078459197085,"lng":36.2151753697085}}},"icon":"https://maps.gstatic.com/mapfiles/place_api/icons/shopping-71.png","id":"1e94a74cb49c31588671708f862187134f2d801b","name":"Sport-Tovary.com.ua","opening_hours":{"open_now":false,"weekday_text":[]},"photos":[{"height":820,"html_attributions":["<a href=\"https://maps.google.com/maps/contrib/111059389782014722932/photos\">Sport-Tovary.com.ua</a>"],"photo_reference":"CmRaAAAAbTE_k-LLghvCH0HQlqirADfWYHYtcbRVmSvRf77gUUzBVeAD3O0ZZtvV4Jn4pXexjeJ604lT7bed-OK3ZugHMzmnS2ayWP7irqS2LSpsprNi8Du-DoVT1We4Uf9aAmy1EhDhgKfov95mFl1e6XuDvnA4GhTrKN9VGszVrDvfuD7TJ2C-kQCzVw","width":1263}],"place_id":"ChIJ8xp1YhihJ0ERFOHSRzSs8TE","reference":"CmRRAAAAj4Ck0vy0hr3YRNlV4jh272DPNPHS-ZmWQwKMchIFilCe2kCZmts4KiOG-SOEcH9DDD99GP8MAZ6GlquAMzhW7PUV4ER-7gcubnN2EiNEG8May4tiLzYibo-L5gWILrzvEhAfZujM0qFTt0uXWsFkhMIGGhTXQ5_zI0bjHCz8dyGI3FUIqqV4Rg","scope":"GOOGLE","types":["store","point_of_interest","establishment"],"vicinity":"Sukhumska Street, 24, Kharkiv"},{"geometry":{"location":{"lat":49.992918,"lng":36.22334999999999},"viewport":{"northeast":{"lat":49.9940337802915,"lng":36.22475823029149},"southwest":{"lat":49.9913358197085,"lng":36.22206026970849}}},"icon":"https://maps.gstatic.com/mapfiles/place_api/icons/shopping-71.png","id":"9158a421a5dcdc334b66ecddfe24cbc7a4ba72b2","name":"Magazin bytovoy tekhniki Teleman","opening_hours":{"open_now":false,"weekday_text":[]},"photos":[{"height":500,"html_attributions":["<a href=\"https://maps.google.com/maps/contrib/104586223058080395532/photos\">Юрий Ломаев</a>"],"photo_reference":"CmRaAAAAJvB3AjjG31WeffIPQHBzL_6Zy8dn3XXDs0LjEj6khBDewjrHXA0YoHvTTMnyhP3fan9xAe_41Rt3Tms7snqM2vDYbibHOX_wjbY1VUM_lBC-Vr2XKiBt0HGOKKnMOpO9EhB54US6XENH251zHJ8zHk8MGhT3cl9u0gnRP1LHEAeaioRVtblf8A","width":500}],"place_id":"ChIJ0SRAt_ugJ0ER-fa_8vlfMNU","rating":4.7,"reference":"CmRSAAAAb4x1RyN__xM2dGzPZAaXPZzR24jYY6tA6dPX5-9vkQgowufknBlNlQ2ERW3hD_3KuuB0OG4dypRWOX--2vy7PRw_mfPns4QSTukqwv98Eh9JkCek3o5RA-aA-6Bzwgo1EhDB9QntnTaAnXTXXaH9hA7NGhQF4M7IwmVzZNAt9tw4SCJnqE7-3w","scope":"GOOGLE","types":["home_goods_store","store","point_of_interest","establishment"],"vicinity":"Suzdal's'ki Ryady Street, 9, Kharkiv"},{"geometry":{"location":{"lat":50.0154352,"lng":36.2127319},"viewport":{"northeast":{"lat":50.0167781302915,"lng":36.2139977302915},"southwest":{"lat":50.0140801697085,"lng":36.2112997697085}}},"icon":"https://maps.gstatic.com/mapfiles/place_api/icons/shopping-71.png","id":"4c0b6c3d5179264bd97be7b52d7e96eedc976f58","name":"Pivnushka","place_id":"ChIJpeyisz2hJ0ERF755N5-l6vo","rating":1,"reference":"CmRSAAAAclaFMV4_j3rzmrFhnZNgx43rdYUeNJXNT_TBwlHBEP_sASdVqgo8xX25S4RnHrFWyrL-O6in7WaiQQNHzEemQOuUDKuHlrl-8hMfPVOvq5X6bUlYVHMGY-LSa5fVte_0EhADKIXe5pJVYzNOYpeNAqIpGhRQ-IQGYD0pMREL3_e81U9xSCHHww","scope":"GOOGLE","types":["liquor_store","store","point_of_interest","establishment"],"vicinity":"Sofiivs'ka Street, Kharkiv"},{"geometry":{"location":{"lat":49.98666,"lng":36.23142199999999},"viewport":{"northeast":{"lat":49.9879386802915,"lng":36.2328237802915},"southwest":{"lat":49.98524071970851,"lng":36.2301258197085}}},"icon":"https://maps.gstatic.com/mapfiles/place_api/icons/shopping-71.png","id":"9d954074e0fa5e106e3b7c67f66c040d54f4dc92","name":"SantehHouse Salon magazin santekhniki i plitki","opening_hours":{"open_now":false,"weekday_text":[]},"place_id":"ChIJDYnDn_agJ0ERlRdxdm-E3RU","rating":5,"reference":"CmRRAAAAh_JxuN5P38FtXesvqvw-koSodDzPzSO3ODfyydD4j3E0q_fOSaFf0Gm295ZkLVHhTkZ3NNeIpMAHCAEXoAWpvIGO0E5gc8RAyZDZfKYFornPsv6K77DRjj3q7JGWAWO8EhBIBUO2bGR-K_-uPAOqeSBeGhSP6MoLgnhgsnAvd_XIUzOZtXwPAQ","scope":"GOOGLE","types":["home_goods_store","store","point_of_interest","establishment"],"vicinity":"Kooperatyvna Street, 3, Kharkiv"}]}